[{"company":[],"capacity":[],"planned_capacity_expansion":[],"location":[],"name":"CPR s-butanol 1"},{"company":[],"capacity":[],"planned_capacity_expansion":[],"location":[],"name":"CPR propylene (polymer grade) 6"},{"company":[],"capacity":[],"planned_capacity_expansion":[],"location":[],"name":"CPR propylene (polymer grade) 4"},{"company":["BASF"],"capacity":["475000"],"planned_capacity_expansion":["nan"],"location":[{"address":"Freeport, TX","latitude":28.9541368,"longitude":-95.3596617}],"name":"CPR propylene (polymer grade) 5"},{"company":["LyondellBasell"],"capacity":["200000"],"planned_capacity_expansion":["nan"],"location":[{"address":"Channelview, TX","latitude":29.7760599,"longitude":-95.11465329999999}],"name":"CPR propylene (polymer grade) 2"},{"company":["Baton Rouge Propylene Concentrator LLC","Enterprise Products Operating","Enterprise Products Partners/Total","INEOS","Marathon (Ashland Petrochemical)"],"capacity":["680000","2000000","1900000","320000","400000"],"planned_capacity_expansion":["nan","nan","nan","nan","nan"],"location":[{"address":"Port Allen, LA","latitude":30.4474878,"longitude":-91.20732609999999},{"address":"Mont Belvieu, TX","latitude":29.8477222,"longitude":-94.890758},{"address":"Mont Belvieu, TX","latitude":29.8477222,"longitude":-94.890758},{"address":"Texas City, TX","latitude":29.383845,"longitude":-94.90270020000003},{"address":"Garyville, Louisiana","latitude":30.056035,"longitude":-90.61925539999999}],"name":"CPR propylene (polymer grade) 3"},{"company":[],"capacity":[],"planned_capacity_expansion":[],"location":[],"name":"CPR propylene (polymer grade) 1"},{"company":["Ineos","Ineos","Ascend Performance Materials"],"capacity":["545000","190000","520000"],"planned_capacity_expansion":["nan","nan","nan"],"location":[{"address":"Green Lake, TX","latitude":28.5302182,"longitude":-96.84046000000001},{"address":"Lima, OH","latitude":40.742551,"longitude":-84.10522559999998},{"address":"Decatur, AL","latitude":34.6059253,"longitude":-86.98334169999998}],"name":"CPR acrylonitrile 1"},{"company":[],"capacity":[],"planned_capacity_expansion":[],"location":[],"name":"CPR acrylonitrile 3"},{"company":[],"capacity":[],"planned_capacity_expansion":[],"location":[],"name":"CPR acrylonitrile 2"},{"company":[],"capacity":[],"planned_capacity_expansion":[],"location":[],"name":"CPR ethylene oxide 3"},{"company":["BASF","Dow","Dow","Dow","Eastman","Formosa Plastics","Huntsman","LyondellBaselll","Old World Industries","Shell"],"capacity":["220000","275000","430000","770000","105000","250000","460000","360000","355000","420000"],"planned_capacity_expansion":["nan","nan","nan","nan","nan","nan","nan","nan","nan","nan"],"location":[{"address":"Geismar, LA","latitude":30.2193468,"longitude":-91.0065088},{"address":"Plaquemine, LA","latitude":30.2890833,"longitude":-91.2342744},{"address":"Seadrift, TX","latitude":28.4152807,"longitude":-96.71359330000001},{"address":"Taft, LA","latitude":29.9913149,"longitude":-90.44813870000002},{"address":"Longview, TX","latitude":32.5007037,"longitude":-94.74048909999999},{"address":"Point Comfort, TX","latitude":28.6797169,"longitude":-96.56025369999998},{"address":"Port Neches, TX","latitude":29.9913244,"longitude":-93.95850669999999},{"address":"Bayport, TX","latitude":29.641149,"longitude":-95.0442567},{"address":"Clear Lake, TX","latitude":29.5552311,"longitude":-95.1152088},{"address":"Geismar, LA","latitude":30.2193468,"longitude":-91.0065088}],"name":"CPR ethylene oxide 2"},{"company":[],"capacity":[],"planned_capacity_expansion":[],"location":[],"name":"CPR ethylene oxide 1"},{"company":["Celanese","Eastman","Dow"],"capacity":["77095","68025","70293"],"planned_capacity_expansion":["nan","nan","nan"],"location":[{"address":"Bay City, TX","latitude":28.9827565,"longitude":-95.969402},{"address":"Kingsport, TX","latitude":36.548434,"longitude":-82.56181859999998},{"address":"Texas City, TX","latitude":29.383845,"longitude":-94.90270020000003}],"name":"CPR butyl acetate 1"},{"company":["Dow","Eastman"],"capacity":["40000","13000"],"planned_capacity_expansion":["nan","nan"],"location":[{"address":"Institute, WV","latitude":38.38377,"longitude":-81.76579770000001},{"address":"Kingsport, TN","latitude":36.548434,"longitude":-82.56181859999998}],"name":"CPR methyl isobutyl ketone 2"},{"company":[],"capacity":[],"planned_capacity_expansion":[],"location":[],"name":"CPR methyl isobutyl ketone 1"},{"company":[],"capacity":[],"planned_capacity_expansion":[],"location":[],"name":"CPR terephthalic acid (crude) 2"},{"company":["BP","BP","DAK Americas","DAK Americas","Eastman"],"capacity":["1228000","1150000","550000","600000","225000"],"planned_capacity_expansion":["nan","nan","nan","nan","nan"],"location":[{"address":"Cooper River, SC","latitude":32.7785099,"longitude":-79.903976},{"address":"Decatur, Alabama","latitude":34.6059253,"longitude":-86.98334169999998},{"address":"Cape Fear, NC","latitude":34.2921756,"longitude":-77.97057749999999},{"address":"Columbia, SC","latitude":34.0007104,"longitude":-81.03481440000002},{"address":"Kingsport, TN","latitude":36.548434,"longitude":-82.56181859999998}],"name":"CPR terephthalic acid (crude) 1"},{"company":[],"capacity":[],"planned_capacity_expansion":[],"location":[],"name":"CPR fuel oil (low sulfur) 1"},{"company":[],"capacity":[],"planned_capacity_expansion":[],"location":[],"name":"CPR carbon monoxide 1"},{"company":["Bayer","Bayer"],"capacity":["300000","40000"],"planned_capacity_expansion":["nan","nan"],"location":[{"address":"Baytown, TX","latitude":29.7355047,"longitude":-94.97742740000001},{"address":"New Martinsville, WV","latitude":39.6445214,"longitude":-80.8575993}],"name":"CPR polyisocyanates (mdi/pmppi) 2"},{"company":["BASF","Huntsman","Dow"],"capacity":["290000","450000","300000"],"planned_capacity_expansion":["nan","nan","nan"],"location":[{"address":"Geismar, LA","latitude":30.2193468,"longitude":-91.0065088},{"address":"Geismar, LA","latitude":30.2193468,"longitude":-91.0065088},{"address":"La Porte, TX","latitude":29.6657838,"longitude":-95.01937279999999}],"name":"CPR polyisocyanates (mdi/pmppi) 1"},{"company":[],"capacity":[],"planned_capacity_expansion":[],"location":[],"name":"CPR n-butylenes 6"},{"company":[],"capacity":[],"planned_capacity_expansion":[],"location":[],"name":"CPR n-butylenes 7"},{"company":[],"capacity":[],"planned_capacity_expansion":[],"location":[],"name":"CPR n-butylenes 4"},{"company":[],"capacity":[],"planned_capacity_expansion":[],"location":[],"name":"CPR n-butylenes 5"},{"company":[],"capacity":[],"planned_capacity_expansion":[],"location":[],"name":"CPR n-butylenes 2"},{"company":["Bayer"],"capacity":["200000"],"planned_capacity_expansion":["nan"],"location":[{"address":"Baytown, TX","latitude":29.7355047,"longitude":-94.97742740000001}],"name":"CPR toluene diisocyanate 2"},{"company":["BASF","Dow"],"capacity":["160000","105000"],"planned_capacity_expansion":["nan","nan"],"location":[{"address":"Geismar, LA","latitude":30.2193468,"longitude":-91.0065088},{"address":"Baytown, TX","latitude":29.7355047,"longitude":-94.97742740000001}],"name":"CPR toluene diisocyanate 1"},{"company":["TPC Group"],"capacity":["142853"],"planned_capacity_expansion":["nan"],"location":[{"address":"Houston, TX","latitude":29.7604267,"longitude":-95.3698028}],"name":"CPR n-butylenes 1"},{"company":[],"capacity":[],"planned_capacity_expansion":[],"location":[],"name":"CPR ethyl acetate 3"},{"company":[],"capacity":[],"planned_capacity_expansion":[],"location":[],"name":"CPR vinyl acetate 4"},{"company":[],"capacity":[],"planned_capacity_expansion":[],"location":[],"name":"CPR vinyl acetate 2"},{"company":[],"capacity":[],"planned_capacity_expansion":[],"location":[],"name":"CPR vinyl acetate 3"},{"company":["Celanese","Celanese","Dow","DuPont","LyondellBaselll"],"capacity":["300000","310000","365000","335000","385000"],"planned_capacity_expansion":["nan","nan","nan","nan","nan"],"location":[{"address":"Bay City, TX","latitude":28.9827565,"longitude":-95.969402},{"address":"Clear Lake, TX","latitude":29.5552311,"longitude":-95.1152088},{"address":"Texas City, tx","latitude":29.383845,"longitude":-94.90270020000003},{"address":"La Porte, TX","latitude":29.6657838,"longitude":-95.01937279999999},{"address":"La Porte, TX","latitude":29.6657838,"longitude":-95.01937279999999}],"name":"CPR vinyl acetate 1"},{"company":[],"capacity":[],"planned_capacity_expansion":[],"location":[],"name":"CPR ammonia 2"},{"company":[],"capacity":[],"planned_capacity_expansion":[],"location":[],"name":"CPR ammonia 3"},{"company":["Honeywell","PotashCorp","US Nitrogen","LSB Industries","CF Industries","Rentech","Mosaic","CF Industries","PotashCorp","Orascom,","Green Valley Chemical","Koch","LSB Industries","CF Industries","CF Industries","Koch","CF Industries","Koch","Dyno Noble","Dyno Noble","Ohio Valley Resources","Dyno Noble","Orascom","Eurochem","LSB Industries","Koch","Northern Plains Nitrogen","CHS"],"capacity":["560000","580000","67450","170000","560000","373000","545000","2850000","483000","305000","34000","375000","255000","1100000","380000","285000","440000","300000","180000","108000","nan","nan","nan","nan","nan","nan","nan","nan"],"planned_capacity_expansion":["nan","88000","nan","nan","nan","nan","1003000","1274000","nan","nan","nan","56000","60000","nan","849000","42000","nan","45000","nan","nan","883300","800000","1200000","800000","375000","150000","803000","803000"],"location":[{"address":"Hopewell, VA","latitude":37.3043154,"longitude":-77.2872001},{"address":"Lima, OH","latitude":40.742551,"longitude":-84.10522559999998},{"address":"Midway, TN","latitude":36.1765835,"longitude":-82.9962031},{"address":"Cherokee, AL","latitude":34.7570342,"longitude":-87.97281429999998},{"address":"Yazoo City, MS","latitude":32.8551326,"longitude":-90.4056468},{"address":"East Dubuque, IL","latitude":42.4922253,"longitude":-90.64290540000002},"Faustina, LA",{"address":"Donaldsonville, LA","latitude":30.1010323,"longitude":-90.99287730000003},{"address":"Geismar, LA","latitude":30.2193468,"longitude":-91.0065088},{"address":"Beaumont, TX","latitude":30.080174,"longitude":-94.12655619999998},{"address":"Creston, IA","latitude":41.0586002,"longitude":-94.3613474},{"address":"Fort Dodge, IA","latitude":42.4974694,"longitude":-94.16801579999998},{"address":"Pryor, OK","latitude":36.3084275,"longitude":-95.31691360000002},{"address":"Verdigris, OK","latitude":36.2348197,"longitude":-95.69109270000001},{"address":"Port Neal, IA","latitude":42.3518187,"longitude":-96.35030610000001},{"address":"Beatrice, NE","latitude":40.2659269,"longitude":-96.74669130000001},{"address":"Woodward, OK","latitude":36.4336481,"longitude":-99.39038619999997},{"address":"Dodge City, KS","latitude":37.7527982,"longitude":-100.01707870000001},{"address":"Cheyenne, WY","latitude":41.1399814,"longitude":-104.82024619999999},{"address":"Helens, OR","latitude":45.8590111,"longitude":-122.81581849999998},{"address":"Rockport, IN","latitude":37.8831055,"longitude":-87.04944080000001},{"address":"Waggaman, LA","latitude":29.9185388,"longitude":-90.21090930000003},{"address":"Wever, IA","latitude":40.710596,"longitude":-91.23098170000003},{"address":"Bapist Parish, LA","latitude":30.1118331,"longitude":-90.48799159999999},{"address":"El Dorado, AR","latitude":33.20763,"longitude":-92.66626739999998},{"address":"Enid, OK","latitude":36.3955891,"longitude":-97.87839109999999},{"address":"Grand Forks, ND","latitude":47.9252568,"longitude":-97.03285470000003},{"address":"Spiritwood, ND","latitude":46.9360994,"longitude":-98.49564809999998}],"name":"CPR ammonia 1"},{"company":["Dakota Gasification","Texas Clean Energy Project","Hydrogen Energy California"],"capacity":["400000","nan","nan"],"planned_capacity_expansion":["nan","450000","800000"],"location":["Great Plains, ND",{"address":"El Paso, TX","latitude":31.7618778,"longitude":-106.4850217},{"address":"Los Angeles, CA","latitude":34.0522342,"longitude":-118.2436849}],"name":"CPR ammonia 4"},{"company":["CVR Partners"],"capacity":["420000"],"planned_capacity_expansion":["nan"],"location":[{"address":"Coffeyville, KS","latitude":37.0373005,"longitude":-95.61636650000003}],"name":"CPR ammonia 5"},{"company":["Arkema"],"capacity":["45000"],"planned_capacity_expansion":["nan"],"location":[{"address":"Clear Lake, TX","latitude":29.5552311,"longitude":-95.1152088}],"name":"CPR methyl acrylate 1"},{"company":[],"capacity":[],"planned_capacity_expansion":[],"location":[],"name":"CPR water demineral 1"},{"company":[],"capacity":[],"planned_capacity_expansion":[],"location":[],"name":"CPR diacetone alcohol 1"},{"company":[],"capacity":[],"planned_capacity_expansion":[],"location":[],"name":"CPR hydrogen 3"},{"company":[],"capacity":[],"planned_capacity_expansion":[],"location":[],"name":"CPR hydrogen 2"},{"company":[],"capacity":[],"planned_capacity_expansion":[],"location":[],"name":"CPR hydrogen 1"},{"company":[],"capacity":[],"planned_capacity_expansion":[],"location":[],"name":"CPR hydrogen 4"},{"company":["Goodyear Chemical"],"capacity":["6800"],"planned_capacity_expansion":["nan"],"location":[{"address":"Bayport, TX, USA","latitude":29.641149,"longitude":-95.0442567}],"name":"CPR acetone 1"},{"company":[],"capacity":[],"planned_capacity_expansion":[],"location":[],"name":"CPR acetone 2"},{"company":[],"capacity":[],"planned_capacity_expansion":[],"location":[],"name":"CPR syngas (2:1) 4"},{"company":[],"capacity":[],"planned_capacity_expansion":[],"location":[],"name":"CPR syngas (2:1) 1"},{"company":[],"capacity":[],"planned_capacity_expansion":[],"location":[],"name":"CPR syngas (2:1) 3"},{"company":[],"capacity":[],"planned_capacity_expansion":[],"location":[],"name":"CPR syngas (2:1) 2"},{"company":[],"capacity":[],"planned_capacity_expansion":[],"location":[],"name":"CPR methanol 1"},{"company":[],"capacity":[],"planned_capacity_expansion":[],"location":[],"name":"CPR methanol 3"},{"company":["Air products","Eastmen"],"capacity":["96000","215420"],"planned_capacity_expansion":["nan","nan"],"location":[{"address":"TN, USA","latitude":35.5174913,"longitude":-86.5804473},{"address":"Kingsport, TN","latitude":36.548434,"longitude":-82.56181859999998}],"name":"CPR methanol 2"},{"company":["G2X Energy","Millennium","Celanese","LyondellBasell","OCI North America","Praxair","Methanex","Methanex","Valero","South Lousiana Methanol","Northwest Innovation Works","Northwest Innovation Works","Lake Charles Clean Energy"],"capacity":["65000","571000","2700000","780000","912500","40000","1000000","1000000","nan","nan","nan","nan","nan"],"planned_capacity_expansion":["nan","nan","nan","nan","1750000","nan","nan","1000000","1600000","1800000","1600000","1600000","1000000"],"location":[{"address":"Pampa, TX","latitude":35.5361559,"longitude":-100.9598709},{"address":"La Port, TX","latitude":29.6657838,"longitude":-95.01937279999999},{"address":"Clear Lake; TX","latitude":29.5552311,"longitude":-95.1152088},{"address":"Channelview, TX","latitude":29.7760599,"longitude":-95.11465329999999},{"address":"Beaumont, TX","latitude":30.080174,"longitude":-94.12655619999998},{"address":"Giesmar, LA","latitude":30.2193468,"longitude":-91.0065088},{"address":"Giesmar, LA","latitude":30.2193468,"longitude":-91.0065088},{"address":"Giesmar, LA","latitude":30.2193468,"longitude":-91.0065088},{"address":"Norco, LA","latitude":29.9990924,"longitude":-90.4123042},{"address":"Port of South Lousiana, LA","latitude":30.07588459999999,"longitude":-90.50158850000003},{"address":"Clatskanie, OR","latitude":46.1012219,"longitude":-123.20678629999998},{"address":"Kalama, WA","latitude":46.0084472,"longitude":-122.8445509},{"address":"Lake Charles, LA","latitude":30.2265949,"longitude":-93.21737580000001}],"name":"CPR methanol 4"},{"company":[],"capacity":[],"planned_capacity_expansion":[],"location":[],"name":"CPR hexylene glycol 1"},{"company":[],"capacity":[],"planned_capacity_expansion":[],"location":[],"name":"CPR nitric acid (95%) 1"},{"company":[],"capacity":[],"planned_capacity_expansion":[],"location":[],"name":"CPR styrene 2"},{"company":["Styrolution","LyondellBasell","LyondellBasell","Carville Styrenics Complex","Carville Styrenics Complex","Americas Styrenics","Styrolution","Americas Styrenics","Westlake Chemicals","Chevron Phillips"],"capacity":["770000","635000","615000","550000","550000","500000","450000","450000","259000","476175"],"planned_capacity_expansion":["nan","nan","nan","nan","nan","nan","nan","nan","nan","nan"],"location":[{"address":"Bayport, TX","latitude":29.641149,"longitude":-95.0442567},{"address":"Channelview, TX","latitude":29.7760599,"longitude":-95.11465329999999},{"address":"Channelview, TX","latitude":29.7760599,"longitude":-95.11465329999999},{"address":"Carville, LA","latitude":30.2171691,"longitude":-91.09576709999999},{"address":"Carville, LA","latitude":30.2171691,"longitude":-91.09576709999999},{"address":"St. James, LA","latitude":29.9828316,"longitude":-90.83087119999999},{"address":"Texas City, TX","latitude":29.383845,"longitude":-94.90270020000003},{"address":"St. James, LA","latitude":29.9828316,"longitude":-90.83087119999999},{"address":"Lake Charles, LA","latitude":30.2265949,"longitude":-93.21737580000001},{"address":"St. James, LA","latitude":29.9828316,"longitude":-90.83087119999999}],"name":"CPR styrene 1"},{"company":[],"capacity":[],"planned_capacity_expansion":[],"location":[],"name":"CPR phenol 5"},{"company":[],"capacity":[],"planned_capacity_expansion":[],"location":[],"name":"CPR n-butanol 1"},{"company":["Blue Island Phenol","Emerald Kalama Chemical","Axiall Corporation","INEOS","SABIC","Shells","Goradia","Honeywell","Dow","Dow"],"capacity":["0","35000","227000","540000","340000","590000","300000","500000","295000","130000"],"planned_capacity_expansion":["nan","nan","nan","nan","nan","nan","-300000","nan","nan","nan"],"location":[{"address":"Blue Island, IL","latitude":41.6572562,"longitude":-87.68004859999996},{"address":"Kalama, WA","latitude":46.0084472,"longitude":-122.8445509},{"address":"Plaquemine, LA","latitude":30.2890833,"longitude":-91.2342744},{"address":"Mobile, AL","latitude":30.6953657,"longitude":-88.0398912},{"address":"Mount Vernon, IN","latitude":37.9322662,"longitude":-87.89502670000002},{"address":"Deer Park, TX","latitude":29.7052284,"longitude":-95.1238204},{"address":"Haverhill, OH","latitude":38.5848013,"longitude":-82.8321123},{"address":"Frankford, PA","latitude":40.0281674,"longitude":-75.08489600000001},{"address":"Freeport, TX","latitude":28.9541368,"longitude":-95.3596617},{"address":"Institute, WV","latitude":38.38377,"longitude":-81.76579770000001}],"name":"CPR phenol 1"},{"company":[],"capacity":[],"planned_capacity_expansion":[],"location":[],"name":"CPR phenol 3"},{"company":[],"capacity":[],"planned_capacity_expansion":[],"location":[],"name":"CPR phenol 2"},{"company":[],"capacity":[],"planned_capacity_expansion":[],"location":[],"name":"CPR methane 1"},{"company":["Air Products","DuPont","Total","Eastman"],"capacity":["181400","90700","272100","170000"],"planned_capacity_expansion":["nan","nan","nan","nan"],"location":[{"address":"Pensacola, Fl","latitude":30.42130899999999,"longitude":-87.2169149},{"address":"Belle, WV","latitude":38.2320461,"longitude":-81.53761839999999},{"address":"Port Neches, TX","latitude":29.9913244,"longitude":-93.95850669999999},{"address":"Pace, FL","latitude":30.5993603,"longitude":-87.16108070000001}],"name":"CPR monomethylamine 1"},{"company":["Dow","Dow","Dow Corning","Dow Corning","GE Plastics","Vulcan Chemicals","Vulcan Chemicals"],"capacity":["38548","117910","204075","90700","74828","77095","40815"],"planned_capacity_expansion":["nan","nan","nan","nan","nan","nan","nan"],"location":[{"address":"Freeport, TX","latitude":28.9541368,"longitude":-95.3596617},{"address":"Plaquemine, LA","latitude":30.2890833,"longitude":-91.2342744},{"address":"Carrollton, KY","latitude":38.68089579999999,"longitude":-85.17939790000003},{"address":"Midland, MI","latitude":43.6155825,"longitude":-84.24721160000001},{"address":"Waterford, NY","latitude":42.7925777,"longitude":-73.68122929999998},{"address":"Geismar, LA","latitude":30.2193468,"longitude":-91.0065088},{"address":"Wichita, KS","latitude":37.68717609999999,"longitude":-97.33005300000002}],"name":"CPR methyl chloride 1"},{"company":[],"capacity":[],"planned_capacity_expansion":[],"location":[],"name":"CPR sulfuric acid 1"},{"company":[],"capacity":[],"planned_capacity_expansion":[],"location":[],"name":"CPR chlorine 1"},{"company":["Dow","PPG Industries","Dow","Formosa Plastics","Occidental Chemical","Occidental Chemical","Shintech Lousiana","Oxy","Oxy","Georgia Gulf","Olin","Occidental Chemical","Basic Chemicals","Basic Chemicals","PPG Industries","Olin","Olin","Sunbelt Chlor-Alkali","Olin","Basic Chemicals","Westlake Chemical","SABIC"],"capacity":["3300000","1126000","885000","735000","650000","547000","530000","460000","370000","365000","365000","345000","245000","245000","245000","236000","236000","225000","220000","205000","185000","169000"],"planned_capacity_expansion":["nan","nan","nan","nan","nan","nan","nan","nan","nan","nan","nan","nan","nan","nan","nan","nan","nan","nan","nan","nan","nan","nan"],"location":[{"address":"Freeport, TX","latitude":28.9541368,"longitude":-95.3596617},{"address":"Lake Charles, LA","latitude":30.2265949,"longitude":-93.21737580000001},{"address":"Plaquemine, LA","latitude":30.2890833,"longitude":-91.2342744},{"address":"Point Comfort, TX","latitude":28.6797169,"longitude":-96.56025369999998},{"address":"Taft, LA","latitude":29.9913149,"longitude":-90.44813870000002},{"address":"Ingleside, TX","latitude":27.8778026,"longitude":-97.211657},{"address":"Plaquemine, LA","latitude":30.2890833,"longitude":-91.2342744},{"address":"Battleground, TX","latitude":29.7057026,"longitude":-95.09251110000002},{"address":"Deer Park, TX","latitude":29.7052284,"longitude":-95.1238204},{"address":"Plaquemine, LA","latitude":30.2890833,"longitude":-91.2342744},{"address":"Mcintosh, AL","latitude":31.2662818,"longitude":-88.0313903},{"address":"Niagara, NY","latitude":43.0962143,"longitude":-79.0377388},{"address":"Geismar, LA","latitude":30.2193468,"longitude":-91.0065088},{"address":"Wichita, KS","latitude":37.68717609999999,"longitude":-97.33005300000002},{"address":"Natrium, WV","latitude":39.74813169999999,"longitude":-80.85148319999996},{"address":"Charleston, TN","latitude":35.2872952,"longitude":-84.75827429999998},{"address":"Niagra, NY","latitude":43.0962143,"longitude":-79.0377388},{"address":"Mcintosh, AL","latitude":31.2662818,"longitude":-88.0313903},{"address":"St. Gabriel, LA","latitude":30.25769529999999,"longitude":-91.09927060000001},{"address":"Geismar, LA","latitude":30.2193468,"longitude":-91.0065088},{"address":"Calvert City, KY","latitude":37.0333896,"longitude":-88.35003619999998},{"address":"Burkville, AL","latitude":32.3281945,"longitude":-86.5369197}],"name":"CPR chlorine 2"},{"company":[],"capacity":[],"planned_capacity_expansion":[],"location":[],"name":"CPR water treated 1"},{"company":[],"capacity":[],"planned_capacity_expansion":[],"location":[],"name":"CPR isoprene 2"},{"company":[],"capacity":[],"planned_capacity_expansion":[],"location":[],"name":"CPR isoprene 3"},{"company":["Goodyear"],"capacity":["105"],"planned_capacity_expansion":["nan"],"location":[{"address":"Houston, TX","latitude":29.7604267,"longitude":-95.3698028}],"name":"CPR isoprene 1"},{"company":[],"capacity":[],"planned_capacity_expansion":[],"location":[],"name":"CPR cyclohexane 2"},{"company":["Chevron Phillips","Citgo","ConocoPhillips","ConocoPhillips","ExxonMobil","Flint Hills","Flint Hills"],"capacity":["480710","120000","340000","120000","190000","310000","75000"],"planned_capacity_expansion":["nan","nan","nan","nan","nan","nan","nan"],"location":[{"address":"Port Arthur, TX","latitude":29.8849504,"longitude":-93.93994699999996},{"address":"Corpus Christi, TX","latitude":27.8005828,"longitude":-97.39638100000002},{"address":"Sweeny, TX","latitude":29.0388615,"longitude":-95.6985608},{"address":"Borger, TX","latitude":35.6678203,"longitude":-101.3973876},{"address":"Beaumont, TX","latitude":30.080174,"longitude":-94.12655619999998},{"address":"Port Arthur, TX","latitude":29.8849504,"longitude":-93.93994699999996},{"address":"Corpus Christi, TX","latitude":27.8005828,"longitude":-97.39638100000002}],"name":"CPR cyclohexane 1"},{"company":[],"capacity":[],"planned_capacity_expansion":[],"location":[],"name":"CPR glycerol 2"},{"company":["American Acryl (jv Arkema)","Arkema","BASF","Dow","Dow","StoHass"],"capacity":["125000","320000","239000","660000","125000","0"],"planned_capacity_expansion":["nan","nan","nan","nan","nan","nan"],"location":[{"address":"Bayport, TX","latitude":29.641149,"longitude":-95.0442567},{"address":"Clear Lake, TX","latitude":29.5552311,"longitude":-95.1152088},{"address":"Freeport, TX","latitude":28.9541368,"longitude":-95.3596617},{"address":"Deer Park, TX","latitude":29.7052284,"longitude":-95.1238204},{"address":"Taft, LA","latitude":29.9913149,"longitude":-90.44813870000002},{"address":"Deer Park, TX","latitude":29.7052284,"longitude":-95.1238204}],"name":"CPR acrylic acid 1"},{"company":[],"capacity":[],"planned_capacity_expansion":[],"location":[],"name":"CPR acrylic acid 2"},{"company":[],"capacity":[],"planned_capacity_expansion":[],"location":[],"name":"CPR acrylic acid 3"},{"company":["BASF","Invista"],"capacity":["136077","111130"],"planned_capacity_expansion":["14000","nan"],"location":[{"address":"Geismar, LA","latitude":30.2193468,"longitude":-91.0065088},{"address":"La Porte, TX","latitude":29.6657838,"longitude":-95.01937279999999}],"name":"CPR 1-4-butanediol 1"},{"company":[],"capacity":[],"planned_capacity_expansion":[],"location":[],"name":"CPR glycerol 4"},{"company":[],"capacity":[],"planned_capacity_expansion":[],"location":[],"name":"CPR glycerol 5"},{"company":[],"capacity":[],"planned_capacity_expansion":[],"location":[],"name":"CPR terephthalic acid (fiber grade) 1"},{"company":["BASF","Bayer","Dow"],"capacity":["160000","200000","105000"],"planned_capacity_expansion":["nan","nan","nan"],"location":[{"address":"Geismar, LA","latitude":30.2193468,"longitude":-91.0065088},{"address":"Baytown, TX","latitude":29.7355047,"longitude":-94.97742740000001},{"address":"Freeport, TX","latitude":28.9541368,"longitude":-95.3596617}],"name":"CPR dinitrotoluene 1"},{"company":[],"capacity":[],"planned_capacity_expansion":[],"location":[],"name":"CPR 2-butoxyethanol 1"},{"company":["Dow","INEOS","AkzoNoble","Occidental Chemical","Dow","Vulcan","Vulcan"],"capacity":["36400","nan","118200","nan","45500","40900","27300"],"planned_capacity_expansion":["nan","nan","nan","nan","nan","nan","nan"],"location":[{"address":"Pittsburg, CA","latitude":38.0279762,"longitude":-121.88468060000002},{"address":"Pasadena, TX","latitude":29.6910625,"longitude":-95.2091006},{"address":"LeMoyne, AL","latitude":30.9582377,"longitude":-88.02777659999998},{"address":"Plaquemine, LA","latitude":30.2890833,"longitude":-91.2342744},{"address":"Plaquemine, LA","latitude":30.2890833,"longitude":-91.2342744},{"address":"Geismar, LA","latitude":30.2193468,"longitude":-91.0065088},{"address":"Wichita, KS","latitude":37.68717609999999,"longitude":-97.33005300000002}],"name":"CPR carbon tetrachloride 1"},{"company":[],"capacity":[],"planned_capacity_expansion":[],"location":[],"name":"CPR cyclohexanol 1"},{"company":[],"capacity":[],"planned_capacity_expansion":[],"location":[],"name":"CPR cyclohexanol 2"},{"company":[],"capacity":[],"planned_capacity_expansion":[],"location":[],"name":"CPR carbon tetrachloride 2"},{"company":["INEOS","Chevron Phillips","Shell","Chevron Phillips"],"capacity":["56688","52153","63490","77670"],"planned_capacity_expansion":["nan","nan","nan","nan"],"location":[{"address":"Pasadena, TX","latitude":29.6910625,"longitude":-95.2091006},{"address":"Baytown, TX","latitude":29.7355047,"longitude":-94.97742740000001},"Geismar, TX",{"address":"Channelview, TX","latitude":29.7760599,"longitude":-95.11465329999999}],"name":"CPR n-butylenes 3"},{"company":["LyondellBaselll"],"capacity":["nan"],"planned_capacity_expansion":["nan"],"location":[{"address":"Tuscola, IL","latitude":39.7991985,"longitude":-88.28310379999999}],"name":"CPR diethyl ether 1"},{"company":["BASF","Dow"],"capacity":["nan","nan"],"planned_capacity_expansion":["nan","nan"],"location":[{"address":"Geismar, LA","latitude":30.2193468,"longitude":-91.0065088},{"address":"Baytown, TX","latitude":29.7355047,"longitude":-94.97742740000001}],"name":"CPR toluene diamine 1"},{"company":["BASF","DuPont","DuPont","Huntsman","Bayer","Sunoco","DuPont","Bayer"],"capacity":["290000","250000","150000","460000","18000","64000","240000","250000"],"planned_capacity_expansion":["nan","nan","nan","nan","nan","nan","nan","nan"],"location":[{"address":"Geismar, LA","latitude":30.2193468,"longitude":-91.0065088},{"address":"Baytown, TX","latitude":29.7355047,"longitude":-94.97742740000001},{"address":"Beaumont, TX","latitude":30.080174,"longitude":-94.12655619999998},{"address":"Geismar, LA","latitude":30.2193468,"longitude":-91.0065088},{"address":"New Martinsville, WV","latitude":39.6445214,"longitude":-80.8575993},{"address":"Haverhill, OH","latitude":38.5848013,"longitude":-82.8321123},{"address":"Pascagoula, MS","latitude":30.3657552,"longitude":-88.55612719999999},{"address":"Baytown, TX","latitude":29.7355047,"longitude":-94.97742740000001}],"name":"CPR aniline 1"},{"company":[],"capacity":[],"planned_capacity_expansion":[],"location":[],"name":"CPR aniline 2"},{"company":[],"capacity":[],"planned_capacity_expansion":[],"location":[],"name":"CPR aniline 3"},{"company":["Rohm and Haas"],"capacity":["nan"],"planned_capacity_expansion":["nan"],"location":[{"address":"Deer Park, TX","latitude":29.7052284,"longitude":-95.1238204}],"name":"CPR ethyl acrylate 3"},{"company":[],"capacity":[],"planned_capacity_expansion":[],"location":[],"name":"CPR ethyl acrylate 2"},{"company":["Arkema","Arkema","Dow","Dow"],"capacity":["20000","nan","nan","nan"],"planned_capacity_expansion":["nan","nan","nan","nan"],"location":[{"address":"Clear Lake, TX","latitude":29.5552311,"longitude":-95.1152088},{"address":"Bayport, TX","latitude":29.641149,"longitude":-95.0442567},{"address":"Clear Lake, TX","latitude":29.5552311,"longitude":-95.1152088},{"address":"Taft, LA","latitude":29.9913149,"longitude":-90.44813870000002}],"name":"CPR ethyl acrylate 1"},{"company":["ExxonMobil"],"capacity":["200000"],"planned_capacity_expansion":["nan"],"location":[{"address":"Baton Rouge, LA, USA","latitude":30.4582829,"longitude":-91.1403196}],"name":"CPR isononanol 1"},{"company":["BASF","Dow","Eastman","BASF"],"capacity":["160000","50000","216000","125000"],"planned_capacity_expansion":["nan","nan","nan","nan"],"location":[{"address":"Freeport, TX","latitude":28.9541368,"longitude":-95.3596617},{"address":"Texas City, TX","latitude":29.383845,"longitude":-94.90270020000003},{"address":"Longview, TX","latitude":32.5007037,"longitude":-94.74048909999999},{"address":"Pasadena, TX","latitude":29.6910625,"longitude":-95.2091006}],"name":"CPR 2-ethylhexanol 1"},{"company":["BASF","Bayer","Bayer","Bayer","Dow","Dow","DuPont","GE Plastics","GE Plastics","Huntsman","J.H.Products","LyondellBaselll","PPG Industries","PPG Industries","Syngenta Crop Protection","VanDeMark"],"capacity":["533316","76188","625830","146934","193190","239448","65304","136050","125166","484338","3265","231600","15238","57140","16326","10884"],"planned_capacity_expansion":["nan","nan","nan","nan","nan","nan","nan","nan","nan","nan","nan","nan","nan","nan","nan","nan"],"location":[{"address":"Geismar, LA","latitude":30.2193468,"longitude":-91.0065088},{"address":"Institute, VA","latitude":37.7888138,"longitude":-79.43815010000003},{"address":"Baytown, TX","latitude":29.7355047,"longitude":-94.97742740000001},{"address":"New Martinsville, WV","latitude":39.6445214,"longitude":-80.8575993},{"address":"Freeport, TX","latitude":28.9541368,"longitude":-95.3596617},{"address":"La Porte, TX","latitude":29.6657838,"longitude":-95.01937279999999},{"address":"Deepwater, NJ","latitude":39.6832814,"longitude":-75.48984480000001},{"address":"Burkville, AL","latitude":32.3281945,"longitude":-86.5369197},{"address":"Mt. Vernon, IN","latitude":37.9322662,"longitude":-87.89502670000002},{"address":"Geismar, LA","latitude":30.2193468,"longitude":-91.0065088},{"address":"Lockport, NY","latitude":43.1706128,"longitude":-78.69030980000002},{"address":"Lake Charles, LA","latitude":30.2265949,"longitude":-93.21737580000001},{"address":"Barberton, OH","latitude":41.012833,"longitude":-81.60512210000002},{"address":"La Porte, TX","latitude":29.6657838,"longitude":-95.01937279999999},{"address":"Cold Creek, AL","latitude":40.3919521,"longitude":-123.09236479999998},{"address":"Lockport, NY","latitude":43.1706128,"longitude":-78.69030980000002}],"name":"CPR phosgene 1"},{"company":[],"capacity":[],"planned_capacity_expansion":[],"location":[],"name":"CPR oxygen 1"},{"company":[],"capacity":[],"planned_capacity_expansion":[],"location":[],"name":"CPR phenol 4"},{"company":[],"capacity":[],"planned_capacity_expansion":[],"location":[],"name":"CPR m-xylene 2"},{"company":[],"capacity":[],"planned_capacity_expansion":[],"location":[],"name":"CPR m-xylene 1"},{"company":[],"capacity":[],"planned_capacity_expansion":[],"location":[],"name":"CPR cyclohexanone 1"},{"company":[],"capacity":[],"planned_capacity_expansion":[],"location":[],"name":"CPR cyclohexanone 2"},{"company":[],"capacity":[],"planned_capacity_expansion":[],"location":[],"name":"CPR cyclohexanone 3"},{"company":["BP","Chevron Phillips","Cos-Mar","Dow","LyondellBasell","INEOS","Sterling Chemicals","Westlake Chemical"],"capacity":["499000","998000","1300000","880000","1361000","880000","862000","204000"],"planned_capacity_expansion":["nan","nan","nan","nan","nan","nan","nan","nan"],"location":[{"address":"Texas City, TX","latitude":29.383845,"longitude":-94.90270020000003},{"address":"St. James, LA","latitude":29.9828316,"longitude":-90.83087119999999},{"address":"Carville, LA","latitude":30.2171691,"longitude":-91.09576709999999},{"address":"Freeport, TX","latitude":28.9541368,"longitude":-95.3596617},{"address":"Channeview, TX","latitude":29.7760599,"longitude":-95.11465329999999},{"address":"Bayport, TX","latitude":29.641149,"longitude":-95.0442567},{"address":"Texas City, TX","latitude":29.383845,"longitude":-94.90270020000003},{"address":"Lake Charles, LA","latitude":30.2265949,"longitude":-93.21737580000001}],"name":"CPR ethylbenzene 1"},{"company":["LyondellBaselll","Dow","Dow","Huntsman","Lonza Group","Eastman"],"capacity":["250000","190000","180000","65000","35000","0"],"planned_capacity_expansion":["nan","nan","nan","nan","nan","nan"],"location":[{"address":"Bayport, TX","latitude":29.641149,"longitude":-95.0442567},{"address":"Plaquemine, LA","latitude":30.2890833,"longitude":-91.2342744},{"address":"Freeport, TX","latitude":28.9541368,"longitude":-95.3596617},{"address":"Port Neches, TX","latitude":29.9913244,"longitude":-93.95850669999999},{"address":"Brandenburg, KY","latitude":37.9989592,"longitude":-86.16941429999997},{"address":"Kingsport, TN","latitude":36.548434,"longitude":-82.56181859999998}],"name":"CPR propylene glycol 1"},{"company":[],"capacity":[],"planned_capacity_expansion":[],"location":[],"name":"CPR trichloroethylene 1"},{"company":[],"capacity":[],"planned_capacity_expansion":[],"location":[],"name":"CPR isobutylene 4"},{"company":[],"capacity":[],"planned_capacity_expansion":[],"location":[],"name":"CPR isobutylene 3"},{"company":[],"capacity":[],"planned_capacity_expansion":[],"location":[],"name":"CPR isobutylene 2"},{"company":[],"capacity":[],"planned_capacity_expansion":[],"location":[],"name":"CPR isobutylene 1"},{"company":[],"capacity":[],"planned_capacity_expansion":[],"location":[],"name":"CPR acetic anhydride 4"},{"company":["Eastman"],"capacity":["820000"],"planned_capacity_expansion":["nan"],"location":[{"address":"Kingsport, TN","latitude":36.548434,"longitude":-82.56181859999998}],"name":"CPR acetic anhydride 3"},{"company":["Celanese","Celanese","Celanese"],"capacity":["160000","115000","0"],"planned_capacity_expansion":["nan","nan","nan"],"location":[{"address":"Narrows, VA","latitude":37.3315103,"longitude":-80.81118659999998},{"address":"Pampa, TX","latitude":35.5361559,"longitude":-100.9598709},{"address":"Rock Hill, SC","latitude":34.9248667,"longitude":-81.02507839999998}],"name":"CPR acetic anhydride 2"},{"company":[],"capacity":[],"planned_capacity_expansion":[],"location":[],"name":"CPR acetic anhydride 1"},{"company":[],"capacity":[],"planned_capacity_expansion":[],"location":[],"name":"CPR p-xylene 5"},{"company":[],"capacity":[],"planned_capacity_expansion":[],"location":[],"name":"CPR p-xylene 4"},{"company":[],"capacity":[],"planned_capacity_expansion":[],"location":[],"name":"CPR p-xylene 1"},{"company":["BP","BP","Chevron Philips","ExxonMobil","ExxonMobil","ExxonMobil","Flint Hills","LyondellBasell"],"capacity":["1000000","1271000","455000","600000","300000","210000","590000","184000"],"planned_capacity_expansion":["nan","nan","nan","nan","nan","nan","nan","nan"],"location":[{"address":"Decatur, AL","latitude":34.6059253,"longitude":-86.98334169999998},{"address":"Texas City, TX","latitude":29.383845,"longitude":-94.90270020000003},{"address":"Pascagoula MS","latitude":30.3657552,"longitude":-88.55612719999999},{"address":"Baytown, TX","latitude":29.7355047,"longitude":-94.97742740000001},{"address":"Beaumont, TX","latitude":30.080174,"longitude":-94.12655619999998},{"address":"Chalmette, LA","latitude":29.942783,"longitude":-89.96351620000002},{"address":"Corpus Christi, TX","latitude":27.8005828,"longitude":-97.39638100000002},{"address":"Houston, TX","latitude":29.7604267,"longitude":-95.3698028}],"name":"CPR p-xylene 3"},{"company":[],"capacity":[],"planned_capacity_expansion":[],"location":[],"name":"CPR p-xylene 2"},{"company":["FMC"],"capacity":["12000"],"planned_capacity_expansion":["nan"],"location":["nan"],"name":"CPR hydrogen peroxide 1"},{"company":[],"capacity":[],"planned_capacity_expansion":[],"location":[],"name":"CPR hydrogen peroxide 2"},{"company":[],"capacity":[],"planned_capacity_expansion":[],"location":[],"name":"CPR syngas (3:1) 2"},{"company":[],"capacity":[],"planned_capacity_expansion":[],"location":[],"name":"CPR syngas (3:1) 3"},{"company":[],"capacity":[],"planned_capacity_expansion":[],"location":[],"name":"CPR syngas (3:1) 1"},{"company":["Oxy","Oxy","Oxy","Occidental Chemical","Occidental Chemical"],"capacity":["955000","1770000","1770000","680000","270000"],"planned_capacity_expansion":["nan","nan","nan","nan","nan"],"location":[{"address":"Deer park, TX","latitude":29.7052284,"longitude":-95.1238204},{"address":"LaPorte, TX","latitude":29.6657838,"longitude":-95.01937279999999},{"address":"Ingleside, TX","latitude":27.8778026,"longitude":-97.211657},{"address":"Convent, LA","latitude":30.0207933,"longitude":-90.83002690000001},{"address":"Geismar, LA","latitude":30.2193468,"longitude":-91.0065088}],"name":"CPR ethylene dichloride 2"},{"company":["Dow","Dow","PPG Industries","OXY","Vulcan","Vulcan"],"capacity":["75000","41000","115000","38500","68025","22675"],"planned_capacity_expansion":["nan","nan","nan","nan","nan","nan"],"location":[{"address":"Freeport, TX","latitude":28.9541368,"longitude":-95.3596617},{"address":"Plaquemine, LA","latitude":30.2890833,"longitude":-91.2342744},{"address":"Lake Charles, LA","latitude":30.2265949,"longitude":-93.21737580000001},{"address":"Deer Park, TX","latitude":29.7052284,"longitude":-95.1238204},{"address":"Geismar, LA","latitude":30.2193468,"longitude":-91.0065088},{"address":"Wichita, KS","latitude":37.68717609999999,"longitude":-97.33005300000002}],"name":"CPR perchloroethylene 1"},{"company":[],"capacity":[],"planned_capacity_expansion":[],"location":[],"name":"CPR perchloroethylene 2"},{"company":["Formosa Plastics","Geismar Vinyls","Georgia Gulf","Georgia Gulf","PHH Monomers","PPG Industries","Dow","Dow","Westlake Chemical"],"capacity":["1130000","535000","770000","1130000","635000","1213000","1270000","2110000","885000"],"planned_capacity_expansion":["nan","nan","nan","nan","nan","nan","nan","nan","nan"],"location":[{"address":"Point Comfort, TX","latitude":28.6797169,"longitude":-96.56025369999998},{"address":"Geismar, LA","latitude":30.2193468,"longitude":-91.0065088},{"address":"Lake Charles, LA","latitude":30.2265949,"longitude":-93.21737580000001},{"address":"Plaquemine, TX","latitude":32.24014530000001,"longitude":-95.36493659999996},{"address":"Lake Charles, LA","latitude":30.2265949,"longitude":-93.21737580000001},{"address":"Lake Charles, LA","latitude":30.2265949,"longitude":-93.21737580000001},{"address":"Plaquemine, TX","latitude":32.24014530000001,"longitude":-95.36493659999996},{"address":"Freeport, TX","latitude":28.9541368,"longitude":-95.3596617},{"address":"Calvert City, KY","latitude":37.0333896,"longitude":-88.35003619999998}],"name":"CPR ethylene dichloride 1"},{"company":["Huntsman","LyondellBasell"],"capacity":["240000","600000"],"planned_capacity_expansion":["nan","nan"],"location":[{"address":"Port Neches, TX","latitude":29.9913244,"longitude":-93.95850669999999},{"address":"Bayport, TX","latitude":29.641149,"longitude":-95.0442567}],"name":"CPR propylene oxide 2"},{"company":["Formosa Plastics","Shell"],"capacity":["300000","400000"],"planned_capacity_expansion":["nan","nan"],"location":[{"address":"Point Comfort, TX","latitude":28.6797169,"longitude":-96.56025369999998},{"address":"Geismar, LA","latitude":30.2193468,"longitude":-91.0065088}],"name":"CPR ethylene glycol 3"},{"company":[],"capacity":[],"planned_capacity_expansion":[],"location":[],"name":"CPR ethylene glycol 2"},{"company":["Indorama Ventures","Dow","LyondellBaselll","Huntsman","Eastman","LyondellBaselll","Dow"],"capacity":["358000","285000","265000","255000","105000","363000","700000"],"planned_capacity_expansion":["nan","nan","nan","nan","nan","nan","nan"],"location":[{"address":"Clear Lake, TX","latitude":29.5552311,"longitude":-95.1152088},{"address":"Seadrift, TX","latitude":28.4152807,"longitude":-96.71359330000001},{"address":"Bayport, TX","latitude":29.641149,"longitude":-95.0442567},{"address":"Port Neches, TX","latitude":29.9913244,"longitude":-93.95850669999999},{"address":"Longview, TX","latitude":32.5007037,"longitude":-94.74048909999999},{"address":"Beaumont, TX","latitude":30.080174,"longitude":-94.12655619999998},{"address":"Taft, LA","latitude":29.9913149,"longitude":-90.44813870000002}],"name":"CPR ethylene glycol 1"},{"company":[],"capacity":[],"planned_capacity_expansion":[],"location":[],"name":"CPR isobutanol 2"},{"company":[],"capacity":[],"planned_capacity_expansion":[],"location":[],"name":"CPR caprolactam 3"},{"company":["BASF"],"capacity":["275000"],"planned_capacity_expansion":["nan"],"location":[{"address":"Freeport, TX","latitude":28.9541368,"longitude":-95.3596617}],"name":"CPR caprolactam 2"},{"company":[],"capacity":[],"planned_capacity_expansion":[],"location":[],"name":"CPR benzene 5"},{"company":[],"capacity":[],"planned_capacity_expansion":[],"location":[],"name":"CPR benzene 4"},{"company":[],"capacity":[],"planned_capacity_expansion":[],"location":[],"name":"CPR benzene 3"},{"company":[],"capacity":[],"planned_capacity_expansion":[],"location":[],"name":"CPR benzene 2"},{"company":[],"capacity":[],"planned_capacity_expansion":[],"location":[],"name":"CPR benzene 1"},{"company":["Capital Resin","Celanese","D.B. Western","DuPont","Geo Speciality Chemicals","Georgia Pasific","Hercules","Dynea","Perstorp Poyols","Praxair","Solutia","Wright Chemical"],"capacity":["45350","730135","544200","181400","61223","1083865","77095","412685","226750","63490","81630","72560"],"planned_capacity_expansion":["nan","nan","nan","nan","nan","nan","nan","nan","nan","nan","nan","nan"],"location":[{"address":"Columbus, OH","latitude":39.9611755,"longitude":-82.99879420000002},{"address":"Bishop, TX","latitude":27.5861441,"longitude":-97.79916359999999},{"address":"LaPorte, TX","latitude":29.6657838,"longitude":-95.01937279999999},{"address":"Parkersburg, WV","latitude":39.2667418,"longitude":-81.56151349999999},{"address":"Allentown, PA","latitude":40.6084305,"longitude":-75.49018330000001},{"address":"Louisiana","latitude":30.9842977,"longitude":-91.96233269999999},{"address":"Louisiana, MO","latitude":39.4489351,"longitude":-91.05152559999999},{"address":"Louisiana","latitude":30.9842977,"longitude":-91.96233269999999},{"address":"Toledo, OH","latitude":41.6639383,"longitude":-83.55521199999998},{"address":"Giesmar, LA","latitude":30.2193468,"longitude":-91.0065088},{"address":"Alvin, TX","latitude":29.4238472,"longitude":-95.24410089999998},{"address":"Riegelwood, NC","latitude":34.3398905,"longitude":-78.22527660000003}],"name":"CPR formaldehyde 1"},{"company":[],"capacity":[],"planned_capacity_expansion":[],"location":[],"name":"CPR ethylene 9"},{"company":["ExonnMobil","ExonnMobil","Shell","Shell"],"capacity":["243750","102000","707483","870748"],"planned_capacity_expansion":["nan","nan","nan","nan"],"location":[{"address":"Baton Rouge, LA","latitude":30.4582829,"longitude":-91.1403196},{"address":"Houston, TX","latitude":29.7604267,"longitude":-95.3698028},{"address":"Deer Park, TX","latitude":29.7052284,"longitude":-95.1238204},{"address":"Norco, LA","latitude":29.9990924,"longitude":-90.4123042}],"name":"CPR ethylene 8"},{"company":[],"capacity":[],"planned_capacity_expansion":[],"location":[],"name":"CPR ethylene 7"},{"company":["ExonnMobil"],"capacity":["243750"],"planned_capacity_expansion":["nan"],"location":[{"address":"Baton Rouge, LA","latitude":30.4582829,"longitude":-91.1403196}],"name":"CPR ethylene 6"},{"company":[],"capacity":[],"planned_capacity_expansion":[],"location":[],"name":"CPR ethylene 5"},{"company":[],"capacity":[],"planned_capacity_expansion":[],"location":[],"name":"CPR ethylene 4"},{"company":[],"capacity":[],"planned_capacity_expansion":[],"location":[],"name":"CPR ethanol 1"},{"company":[],"capacity":[],"planned_capacity_expansion":[],"location":[],"name":"CPR ethylene 2"},{"company":[],"capacity":[],"planned_capacity_expansion":[],"location":[],"name":"CPR ethylene 1"},{"company":[],"capacity":[],"planned_capacity_expansion":[],"location":[],"name":"CPR ethanol 2"},{"company":[],"capacity":[],"planned_capacity_expansion":[],"location":[],"name":"CPR maleic anhydride 3"},{"company":["Huntsman","Huntsman","Flint Hills","LANXESS","Marathon"],"capacity":["45000","110000","50000","75000","45000"],"planned_capacity_expansion":["nan","nan","nan","nan","nan"],"location":[{"address":"Geismar, LA","latitude":30.2193468,"longitude":-91.0065088},{"address":"Pensacola, FL","latitude":30.42130899999999,"longitude":-87.2169149},{"address":"Joliet, IL","latitude":41.525031,"longitude":-88.08172509999997},{"address":"Baytown, TX","latitude":29.7355047,"longitude":-94.97742740000001},{"address":"Neal, WV","latitude":38.3567493,"longitude":-82.59293639999999}],"name":"CPR maleic anhydride 2"},{"company":[],"capacity":[],"planned_capacity_expansion":[],"location":[],"name":"CPR maleic anhydride 1"},{"company":[],"capacity":[],"planned_capacity_expansion":[],"location":[],"name":"CPR propylene (chemical grade) 1"},{"company":["Eastman","Eastman","Solutia","Solutia"],"capacity":["27000","32000","14000","11000"],"planned_capacity_expansion":["nan","nan","nan","nan"],"location":[{"address":"Kingsport, TN","latitude":36.548434,"longitude":-82.56181859999998},{"address":"Longview, TX","latitude":32.5007037,"longitude":-94.74048909999999},{"address":"Springfield, MA","latitude":42.1014831,"longitude":-72.589811},{"address":"Trenton, MI","latitude":42.1394858,"longitude":-83.17825870000001}],"name":"CPR ethyl acetate 1"},{"company":[],"capacity":[],"planned_capacity_expansion":[],"location":[],"name":"CPR acetaldehyde 4"},{"company":[],"capacity":[],"planned_capacity_expansion":[],"location":[],"name":"CPR acetaldehyde 5"},{"company":["Celanese"],"capacity":["nan"],"planned_capacity_expansion":["nan"],"location":[{"address":"Bishop, TX","latitude":27.5861441,"longitude":-97.79916359999999}],"name":"CPR acetaldehyde 2"},{"company":[],"capacity":[],"planned_capacity_expansion":[],"location":[],"name":"CPR acetaldehyde 3"},{"company":["Eastman","Celanese"],"capacity":["200000","nan"],"planned_capacity_expansion":["nan","nan"],"location":[{"address":"Longview, TX","latitude":32.5007037,"longitude":-94.74048909999999},{"address":"Narrows, VA","latitude":37.3315103,"longitude":-80.81118659999998}],"name":"CPR acetaldehyde 1"},{"company":[],"capacity":[],"planned_capacity_expansion":[],"location":[],"name":"CPR benzyl chloride 1"},{"company":[],"capacity":[],"planned_capacity_expansion":[],"location":[],"name":"CPR ethyl tert-butyl ether 2"},{"company":["LyondellBasell"],"capacity":["nan"],"planned_capacity_expansion":["nan"],"location":[{"address":"Channelview, TX","latitude":29.7760599,"longitude":-95.11465329999999}],"name":"CPR ethyl tert-butyl ether 1"},{"company":[],"capacity":[],"planned_capacity_expansion":[],"location":[],"name":"CPR 2-methoxyethanol 1"},{"company":["Dow","Eastman"],"capacity":["125000","50000"],"planned_capacity_expansion":["nan","nan"],"location":[{"address":"Freeport, TX","latitude":28.9541368,"longitude":-95.3596617},{"address":"Kingsport, TN","latitude":36.548434,"longitude":-82.56181859999998}],"name":"CPR propionic acid 1"},{"company":["Cytec Industries"],"capacity":["80000"],"planned_capacity_expansion":["nan"],"location":[{"address":"Fortier, LA","latitude":29.959406,"longitude":-90.27422389999998}],"name":"CPR melamine 1"},{"company":[],"capacity":[],"planned_capacity_expansion":[],"location":[],"name":"CPR melamine 3"},{"company":[],"capacity":[],"planned_capacity_expansion":[],"location":[],"name":"CPR melamine 2"},{"company":[],"capacity":[],"planned_capacity_expansion":[],"location":[],"name":"CPR melamine 4"},{"company":["Marathon","Citgo","Flint Hills","Georgia Pacific","INEOS","Shell","Sunoco","Sunoco","Blue Island phenol"],"capacity":["375000","500000","676000","907000","450000","725000","612225","226750","0"],"planned_capacity_expansion":["nan","nan","nan","nan","nan","nan","nan","nan","nan"],"location":[{"address":"Ashland, KY","latitude":38.4784144,"longitude":-82.6379387},{"address":"Corpus Christi, TX","latitude":27.8005828,"longitude":-97.39638100000002},{"address":"Corpus Christi, TX","latitude":27.8005828,"longitude":-97.39638100000002},{"address":"Pasadena, TX","latitude":29.6910625,"longitude":-95.2091006},{"address":"Port Arthur, TX","latitude":29.8849504,"longitude":-93.93994699999996},{"address":"Deer Park, TX","latitude":29.7052284,"longitude":-95.1238204},{"address":"Philadelphia, PA","latitude":39.9525839,"longitude":-75.16522150000003},{"address":"Westville, NJ","latitude":39.8678912,"longitude":-75.1315649},{"address":"Blue Island, IL","latitude":41.6572562,"longitude":-87.68004859999996}],"name":"CPR cumene 1"},{"company":[],"capacity":[],"planned_capacity_expansion":[],"location":[],"name":"CPR acrolein 2"},{"company":[],"capacity":[],"planned_capacity_expansion":[],"location":[],"name":"CPR acrolein 3"},{"company":[],"capacity":[],"planned_capacity_expansion":[],"location":[],"name":"CPR methyl chloride 2"},{"company":["Evonik","Arakema","Baker Petrolite Corporation","Dow Chemical"],"capacity":["218000","nan","nan","nan"],"planned_capacity_expansion":["nan","nan","nan","nan"],"location":[{"address":"Mobile, Alabama","latitude":30.6953657,"longitude":-88.0398912},{"address":"Baytown, TX","latitude":29.7355047,"longitude":-94.97742740000001},{"address":"Taft, CA","latitude":35.1424671,"longitude":-119.4565078},{"address":"Taft, LA","latitude":29.9913149,"longitude":-90.44813870000002}],"name":"CPR acrolein 1"},{"company":[],"capacity":[],"planned_capacity_expansion":[],"location":[],"name":"CPR 1-4-butanediol 7"},{"company":[],"capacity":[],"planned_capacity_expansion":[],"location":[],"name":"CPR 1-4-butanediol 6"},{"company":["Ashland"],"capacity":["65770"],"planned_capacity_expansion":["nan"],"location":[{"address":"Lima, OH","latitude":40.742551,"longitude":-84.10522559999998}],"name":"CPR 1-4-butanediol 5"},{"company":["LyondellBaselll"],"capacity":["63490"],"planned_capacity_expansion":["nan"],"location":[{"address":"Chanellview, TX","latitude":29.7760599,"longitude":-95.11465329999999}],"name":"CPR 1-4-butanediol 4"},{"company":[],"capacity":[],"planned_capacity_expansion":[],"location":[],"name":"CPR 1-4-butanediol 3"},{"company":[],"capacity":[],"planned_capacity_expansion":[],"location":[],"name":"CPR 1-4-butanediol 2"},{"company":[],"capacity":[],"planned_capacity_expansion":[],"location":[],"name":"CPR isoprene 4"},{"company":["Shell"],"capacity":["140000"],"planned_capacity_expansion":["nan"],"location":[{"address":"Geismar, LA","latitude":30.2193468,"longitude":-91.0065088}],"name":"CPR octenes 2"},{"company":["Cheveron Phillips","LyondellBasel"],"capacity":["100000","nan"],"planned_capacity_expansion":["nan","nan"],"location":[{"address":"Cedar Bayou, TX","latitude":29.7755031,"longitude":-94.94214829999999},{"address":"Channelview,TX","latitude":29.7760599,"longitude":-95.11465329999999}],"name":"CPR octenes 1"},{"company":[],"capacity":[],"planned_capacity_expansion":[],"location":[],"name":"CPR 1-2-dimethoxyethane 1"},{"company":["Dow","Arkema","Arkema","BASF"],"capacity":["50000","100000","nan","100000"],"planned_capacity_expansion":["nan","nan","nan","nan"],"location":[{"address":"Hahnville, LA","latitude":29.9765931,"longitude":-90.40897080000002},{"address":"Clear lake, TX","latitude":29.5552311,"longitude":-95.1152088},{"address":"Bayport, TX","latitude":29.641149,"longitude":-95.0442567},{"address":"Freeport, TX","latitude":28.9541368,"longitude":-95.3596617}],"name":"CPR 2-ethyl hexyl acrylate 1"},{"company":[],"capacity":[],"planned_capacity_expansion":[],"location":[],"name":"CPR carbon dioxide 1"},{"company":["BASF","First Chemical","First Chemical","Huntsman","Bayer"],"capacity":["272100","154190","226750","516990","0"],"planned_capacity_expansion":["nan","nan","nan","nan","nan"],"location":[{"address":"Geismar, LA","latitude":30.2193468,"longitude":-91.0065088},{"address":"Baytown, TX","latitude":29.7355047,"longitude":-94.97742740000001},{"address":"Pascagoula, MS","latitude":30.3657552,"longitude":-88.55612719999999},{"address":"Geismar, LA","latitude":30.2193468,"longitude":-91.0065088},{"address":"Baytown, TX","latitude":29.7355047,"longitude":-94.97742740000001}],"name":"CPR nitrobenzene 1"},{"company":["DuPont"],"capacity":["197272"],"planned_capacity_expansion":["nan"],"location":[{"address":"Beaumont, TX","latitude":30.080174,"longitude":-94.12655619999998}],"name":"CPR nitrobenzene 2"},{"company":["Shell","Dow"],"capacity":["nan","nan"],"planned_capacity_expansion":["nan","nan"],"location":[{"address":"Houston, TX","latitude":29.7604267,"longitude":-95.3698028},{"address":"Freeport, TX","latitude":28.9541368,"longitude":-95.3596617}],"name":"CPR allyl alcohol 3"},{"company":[],"capacity":[],"planned_capacity_expansion":[],"location":[],"name":"CPR allyl alcohol 2"},{"company":[],"capacity":[],"planned_capacity_expansion":[],"location":[],"name":"CPR allyl alcohol 1"},{"company":["BASF","Invista"],"capacity":["nan","nan"],"planned_capacity_expansion":["nan","nan"],"location":[{"address":"Geismar, LA","latitude":30.2193468,"longitude":-91.0065088},{"address":"Wichita, KS","latitude":37.68717609999999,"longitude":-97.33005300000002}],"name":"CPR tetrahydrofuran 1"},{"company":[],"capacity":[],"planned_capacity_expansion":[],"location":[],"name":"CPR formic acid 2"},{"company":[],"capacity":[],"planned_capacity_expansion":[],"location":[],"name":"CPR formic acid 3"},{"company":["BASF"],"capacity":["50000"],"planned_capacity_expansion":["nan"],"location":[{"address":"Giesmar, USA","latitude":30.2193468,"longitude":-91.0065088}],"name":"CPR formic acid 1"},{"company":[],"capacity":[],"planned_capacity_expansion":[],"location":[],"name":"CPR hexamethylenetetramine 1"},{"company":["Dow","Dow","Equistar","Huntsman","INEOS"],"capacity":["182000","100000","25000","159000","160000"],"planned_capacity_expansion":["nan","nan","nan","nan","nan"],"location":[{"address":"Seadrift, TX","latitude":28.4152807,"longitude":-96.71359330000001},{"address":"Taft, LA","latitude":29.9913149,"longitude":-90.44813870000002},{"address":"Bayport, TX","latitude":29.641149,"longitude":-95.0442567},{"address":"Port Neches, TX","latitude":29.9913244,"longitude":-93.95850669999999},{"address":"Plaquemine, LA","latitude":30.2890833,"longitude":-91.2342744}],"name":"CPR monoethanolamine 1"},{"company":["American Acryl","Arkema","Dow","Dow","BASF"],"capacity":["60000","175000","100000","309000","50000"],"planned_capacity_expansion":["nan","nan","nan","nan","nan"],"location":[{"address":"Bayport, TX","latitude":29.641149,"longitude":-95.0442567},{"address":"Clear Lake, TX","latitude":29.5552311,"longitude":-95.1152088},{"address":"Taft, LA","latitude":29.9913149,"longitude":-90.44813870000002},{"address":"Deer Park, TX","latitude":29.7052284,"longitude":-95.1238204},{"address":"Freeport, TX","latitude":28.9541368,"longitude":-95.3596617}],"name":"CPR butyl acrylate 1"},{"company":[],"capacity":[],"planned_capacity_expansion":[],"location":[],"name":"CPR glycerol 3"},{"company":["ExxonMobil","BASF","Stepan","Koppers Industries"],"capacity":["135000","125000","110000","100000"],"planned_capacity_expansion":["nan","nan","nan","nan"],"location":[{"address":"Baton Rouge, LA","latitude":30.4582829,"longitude":-91.1403196},{"address":"Pasadena, TX","latitude":29.6910625,"longitude":-95.2091006},{"address":"Elwood, IL","latitude":41.4039201,"longitude":-88.11172420000003},{"address":"Cicero, IL","latitude":41.8455877,"longitude":-87.7539448}],"name":"CPR phthalic anhydride 1"},{"company":[],"capacity":[],"planned_capacity_expansion":[],"location":[],"name":"CPR phthalic anhydride 2"},{"company":[],"capacity":[],"planned_capacity_expansion":[],"location":[],"name":"CPR glycerol 1"},{"company":[],"capacity":[],"planned_capacity_expansion":[],"location":[],"name":"CPR propylene (refinery grade) 1"},{"company":[],"capacity":[],"planned_capacity_expansion":[],"location":[],"name":"CPR heptenes 1"},{"company":["Equistar"],"capacity":["30000"],"planned_capacity_expansion":["nan"],"location":[{"address":"Channelview, TX","latitude":29.7760599,"longitude":-95.11465329999999}],"name":"CPR isopropanol 4"},{"company":[],"capacity":[],"planned_capacity_expansion":[],"location":[],"name":"CPR isopropanol 1"},{"company":[],"capacity":[],"planned_capacity_expansion":[],"location":[],"name":"CPR isopropanol 2"},{"company":["Dow","ExxonMobil","Shell"],"capacity":["430000","380000","275000"],"planned_capacity_expansion":["nan","nan","nan"],"location":[{"address":"Texas City, TX","latitude":29.383845,"longitude":-94.90270020000003},{"address":"Baton Rouge, LA","latitude":30.4582829,"longitude":-91.1403196},{"address":"Deer Park, TX","latitude":29.7052284,"longitude":-95.1238204}],"name":"CPR isopropanol 3"},{"company":[],"capacity":[],"planned_capacity_expansion":[],"location":[],"name":"CPR 1-3-propanediol 1"},{"company":["Dow","Dow","Vulcan","Vulcan"],"capacity":["75000","75000","45350","61223"],"planned_capacity_expansion":["nan","nan","nan","nan"],"location":[{"address":"Freeport, TX","latitude":28.9541368,"longitude":-95.3596617},{"address":"Plaquemine, LA","latitude":30.2890833,"longitude":-91.2342744},{"address":"Geismar, LA","latitude":30.2193468,"longitude":-91.0065088},{"address":"Wichita, KS","latitude":37.68717609999999,"longitude":-97.33005300000002}],"name":"CPR methylene chloride 1"},{"company":[],"capacity":[],"planned_capacity_expansion":[],"location":[],"name":"CPR ethylene bromide 1"},{"company":["PPG Industries","Solutia"],"capacity":["20408","72560"],"planned_capacity_expansion":["nan","nan"],"location":[{"address":"Natrium, WV","latitude":39.74813169999999,"longitude":-80.85148319999996},{"address":"Sauget, IL","latitude":38.5964402,"longitude":-90.18483309999999}],"name":"CPR chlorobenzene 1"},{"company":[],"capacity":[],"planned_capacity_expansion":[],"location":[],"name":"CPR chlorobenzene 2"},{"company":[],"capacity":[],"planned_capacity_expansion":[],"location":[],"name":"CPR isooctanol 2"},{"company":[],"capacity":[],"planned_capacity_expansion":[],"location":[],"name":"CPR isooctanol 3"},{"company":["ExxonMobil"],"capacity":["nan"],"planned_capacity_expansion":["nan"],"location":[{"address":"Baton Rouge, LA, USA","latitude":30.4582829,"longitude":-91.1403196}],"name":"CPR isooctanol 1"},{"company":[],"capacity":[],"planned_capacity_expansion":[],"location":[],"name":"CPR vinylidene chloride 2"},{"company":[],"capacity":[],"planned_capacity_expansion":[],"location":[],"name":"CPR vinylidene chloride 3"},{"company":["Dow","Dow","PPG Industries"],"capacity":["nan","nan","nan"],"planned_capacity_expansion":["nan","nan","nan"],"location":[{"address":"Freeport, TX","latitude":28.9541368,"longitude":-95.3596617},{"address":"Plaquemine, LA","latitude":30.2890833,"longitude":-91.2342744},{"address":"Lake Charles, LA","latitude":30.2265949,"longitude":-93.21737580000001}],"name":"CPR vinylidene chloride 1"},{"company":["Dow","Dow","Formosa Plastics","Formosa Plastics","Westlake Chemical","Georgia Gulf","Georgia Gulf","Oxy","Oxy","Oxy","PHH Monomers","Westlake Chemical"],"capacity":["816300","680250","444430","560073","294775","453500","725600","1043050","589550","1088400","589550","544200"],"planned_capacity_expansion":["nan","nan","nan","nan","nan","nan","nan","nan","nan","nan","nan","nan"],"location":[{"address":"Freeport, TX","latitude":28.9541368,"longitude":-95.3596617},{"address":"Plaquemine, LA","latitude":30.2890833,"longitude":-91.2342744},{"address":"Baton Rouge, LA","latitude":30.4582829,"longitude":-91.1403196},{"address":"Point Comfort, TX","latitude":28.6797169,"longitude":-96.56025369999998},{"address":"Geismar, LA","latitude":30.2193468,"longitude":-91.0065088},{"address":"Lake Charles, LA","latitude":30.2265949,"longitude":-93.21737580000001},{"address":"Plaquemine, LA","latitude":30.2890833,"longitude":-91.2342744},{"address":"Ingelside, TX","latitude":27.8778026,"longitude":-97.211657},{"address":"Deer Park, TX","latitude":29.7052284,"longitude":-95.1238204},{"address":"LaPorte, TX","latitude":29.6657838,"longitude":-95.01937279999999},{"address":"Lake Charles, LA","latitude":30.2265949,"longitude":-93.21737580000001},{"address":"Calvert City, KY","latitude":37.0333896,"longitude":-88.35003619999998}],"name":"CPR vinyl chloride 2"},{"company":[],"capacity":[],"planned_capacity_expansion":[],"location":[],"name":"CPR vinyl chloride 3"},{"company":[],"capacity":[],"planned_capacity_expansion":[],"location":[],"name":"CPR vinyl chloride 1"},{"company":[],"capacity":[],"planned_capacity_expansion":[],"location":[],"name":"CPR ethylene chlorohydrin 1"},{"company":[],"capacity":[],"planned_capacity_expansion":[],"location":[],"name":"CPR terephthalic acid (fiber grade) 2"},{"company":[],"capacity":[],"planned_capacity_expansion":[],"location":[],"name":"CPR adiponitrile 1"},{"company":["Invista","Invista"],"capacity":["240000","375000"],"planned_capacity_expansion":["nan","nan"],"location":[{"address":"Orange, TX","latitude":30.0929879,"longitude":-93.73655489999999},{"address":"Victoria, TX","latitude":28.8052674,"longitude":-97.0035982}],"name":"CPR adiponitrile 3"},{"company":["Accend Performance Materials"],"capacity":["300000"],"planned_capacity_expansion":["nan"],"location":[{"address":"Decatur, Al","latitude":34.6059253,"longitude":-86.98334169999998}],"name":"CPR adiponitrile 2"},{"company":[],"capacity":[],"planned_capacity_expansion":[],"location":[],"name":"CPR isobutanol 1"},{"company":[],"capacity":[],"planned_capacity_expansion":[],"location":[],"name":"CPR propylene oxide 1"},{"company":["Honeywell","DSM"],"capacity":["400000","305000"],"planned_capacity_expansion":["nan","nan"],"location":[{"address":"Hopewell, VA","latitude":37.3043154,"longitude":-77.2872001},{"address":"Augusta, GA","latitude":33.4734978,"longitude":-82.01051480000001}],"name":"CPR caprolactam 5"},{"company":["Dow","Dow"],"capacity":["330000","725000"],"planned_capacity_expansion":["nan","nan"],"location":[{"address":"Plaquemine, LA","latitude":30.2890833,"longitude":-91.2342744},{"address":"Freeport, TX","latitude":28.9541368,"longitude":-95.3596617}],"name":"CPR propylene oxide 3"},{"company":["LyondellBasell"],"capacity":["550000"],"planned_capacity_expansion":["nan"],"location":[{"address":"Channelview, TX","latitude":29.7760599,"longitude":-95.11465329999999}],"name":"CPR propylene oxide 4"},{"company":[],"capacity":[],"planned_capacity_expansion":[],"location":[],"name":"CPR propylene oxide 5"},{"company":[],"capacity":[],"planned_capacity_expansion":[],"location":[],"name":"CPR caprolactam 1"},{"company":[],"capacity":[],"planned_capacity_expansion":[],"location":[],"name":"CPR urea 1"},{"company":["Agrium","CF Industries","El Paso Refining and Chemical","Farmland","MissChem Nitrogen","LaRoche","MissChem Nitrogen","PCS Nitrogen","Royster-Clark","J.R.Simplot","Terra Industries","Triad Nitrogen"],"capacity":["107148","213134","20151","87191","22767","8332","15791","162466","11335","1757","126524","105404"],"planned_capacity_expansion":["nan","nan","nan","nan","nan","nan","nan","nan","nan","nan","nan","nan"],"location":["Boger, TX",{"address":"Donaldsonville, LA","latitude":30.1010323,"longitude":-90.99287730000003},{"address":"Cheyenne, WY","latitude":41.1399814,"longitude":-104.82024619999999},{"address":"Enid, OK","latitude":36.3955891,"longitude":-97.87839109999999},"Faustina, LA",{"address":"Cherokee, AL","latitude":34.7570342,"longitude":-87.97281429999998},{"address":"Yazoo, MS","latitude":32.8078912,"longitude":-90.3748354},{"address":"Geismar, LA","latitude":30.2193468,"longitude":-91.0065088},{"address":"East Dubuque, IL","latitude":42.4922253,"longitude":-90.64290540000002},"Pocatello, IL",{"address":"Deerfield, IL","latitude":42.1711365,"longitude":-87.84451189999999},{"address":"Donaldsonville, LA","latitude":30.1010323,"longitude":-90.99287730000003}],"name":"CPR urea 2"},{"company":["Agrium","CF Industries","El Paso Refining and Chemical","Farmland","MissChem Nitrogen","LaRoche","MissChem Nitrogen","PCS Nitrogen","Royster-Clark","J.R.Simplot","Terra Industries","Triad Nitrogen"],"capacity":["107148","213134","20151","87191","22767","8332","15791","162466","11335","1757","126524","105404"],"planned_capacity_expansion":["nan","nan","nan","nan","nan","nan","nan","nan","nan","nan","nan","nan"],"location":["Boger, TX",{"address":"Donaldsonville, LA","latitude":30.1010323,"longitude":-90.99287730000003},{"address":"Cheyenne, WY","latitude":41.1399814,"longitude":-104.82024619999999},{"address":"Enid, OK","latitude":36.3955891,"longitude":-97.87839109999999},"Faustina, LA",{"address":"Cherokee, AL","latitude":34.7570342,"longitude":-87.97281429999998},{"address":"Yazoo, MS","latitude":32.8078912,"longitude":-90.3748354},{"address":"Geismar, LA","latitude":30.2193468,"longitude":-91.0065088},{"address":"East Dubuque, IL","latitude":42.4922253,"longitude":-90.64290540000002},"Pocatello, IL",{"address":"Deerfield, IL","latitude":42.1711365,"longitude":-87.84451189999999},{"address":"Donaldsonville, LA","latitude":30.1010323,"longitude":-90.99287730000003}],"name":"CPR urea 3"},{"company":["Agrium","CF Industries","El Paso Refining and Chemical","Farmland","MissChem Nitrogen","LaRoche","MissChem Nitrogen","PCS Nitrogen","Royster-Clark","J.R.Simplot","Terra Industries","Triad Nitrogen"],"capacity":["107148","213134","20151","87191","22767","8332","15791","162466","11335","1757","126524","105404"],"planned_capacity_expansion":["nan","nan","nan","nan","nan","nan","nan","nan","nan","nan","nan","nan"],"location":["Boger, TX",{"address":"Donaldsonville, LA","latitude":30.1010323,"longitude":-90.99287730000003},{"address":"Cheyenne, WY","latitude":41.1399814,"longitude":-104.82024619999999},{"address":"Enid, OK","latitude":36.3955891,"longitude":-97.87839109999999},"Faustina, LA",{"address":"Cherokee, AL","latitude":34.7570342,"longitude":-87.97281429999998},{"address":"Yazoo, MS","latitude":32.8078912,"longitude":-90.3748354},{"address":"Geismar, LA","latitude":30.2193468,"longitude":-91.0065088},{"address":"East Dubuque, IL","latitude":42.4922253,"longitude":-90.64290540000002},"Pocatello, IL",{"address":"Deerfield, IL","latitude":42.1711365,"longitude":-87.84451189999999},{"address":"Donaldsonville, LA","latitude":30.1010323,"longitude":-90.99287730000003}],"name":"CPR urea 4"},{"company":["Agrium","CF Industries","El Paso Refining and Chemical","Farmland","MissChem Nitrogen","LaRoche","MissChem Nitrogen","PCS Nitrogen","Royster-Clark","J.R.Simplot","Terra Industries","Triad Nitrogen"],"capacity":["107148","213134","20151","87191","22767","8332","15791","162466","11335","1757","126524","105404"],"planned_capacity_expansion":["nan","nan","nan","nan","nan","nan","nan","nan","nan","nan","nan","nan"],"location":["Boger, TX",{"address":"Donaldsonville, LA","latitude":30.1010323,"longitude":-90.99287730000003},{"address":"Cheyenne, WY","latitude":41.1399814,"longitude":-104.82024619999999},{"address":"Enid, OK","latitude":36.3955891,"longitude":-97.87839109999999},"Faustina, LA",{"address":"Cherokee, AL","latitude":34.7570342,"longitude":-87.97281429999998},{"address":"Yazoo, MS","latitude":32.8078912,"longitude":-90.3748354},{"address":"Geismar, LA","latitude":30.2193468,"longitude":-91.0065088},{"address":"East Dubuque, IL","latitude":42.4922253,"longitude":-90.64290540000002},"Pocatello, IL",{"address":"Deerfield, IL","latitude":42.1711365,"longitude":-87.84451189999999},{"address":"Donaldsonville, LA","latitude":30.1010323,"longitude":-90.99287730000003}],"name":"CPR urea 5"},{"company":[],"capacity":[],"planned_capacity_expansion":[],"location":[],"name":"CPR epichlorohydrin 1"},{"company":[],"capacity":[],"planned_capacity_expansion":[],"location":[],"name":"CPR epichlorohydrin 3"},{"company":[],"capacity":[],"planned_capacity_expansion":[],"location":[],"name":"CPR epichlorohydrin 2"},{"company":["Dow","Momentive"],"capacity":["345000","100000"],"planned_capacity_expansion":["nan","nan"],"location":[{"address":"Freeport, Texas, US","latitude":28.9541368,"longitude":-95.3596617},{"address":"Noroco, LA, USA","latitude":29.9990924,"longitude":-90.4123042}],"name":"CPR epichlorohydrin 4"},{"company":[],"capacity":[],"planned_capacity_expansion":[],"location":[],"name":"CPR dimethyl terephthalate 2"},{"company":["DuPont","KoSa","Eastman","Eastman","Invista"],"capacity":["0","700000","300000","250000","545000"],"planned_capacity_expansion":["nan","nan","nan","nan","nan"],"location":[{"address":"Old Hickory, TN","latitude":36.2574941,"longitude":-86.64777479999998},{"address":"Cape Fear, NC","latitude":34.2921756,"longitude":-77.97057749999999},{"address":"Columbia, SC","latitude":34.0007104,"longitude":-81.03481440000002},{"address":"Kingsport, TN","latitude":36.548434,"longitude":-82.56181859999998},{"address":"Wilmington, NC","latitude":34.2257255,"longitude":-77.94471020000003}],"name":"CPR dimethyl terephthalate 1"},{"company":["BP","Eastman"],"capacity":["200000","68000"],"planned_capacity_expansion":["nan","nan"],"location":[{"address":"Joliet, IL","latitude":41.525031,"longitude":-88.08172509999997},{"address":"Columbia, SC","latitude":34.0007104,"longitude":-81.03481440000002}],"name":"CPR isophthalic acid 1"},{"company":[],"capacity":[],"planned_capacity_expansion":[],"location":[],"name":"CPR hexamethylenediamine 4"},{"company":[],"capacity":[],"planned_capacity_expansion":[],"location":[],"name":"CPR hexamethylenediamine 3"},{"company":[],"capacity":[],"planned_capacity_expansion":[],"location":[],"name":"CPR hexamethylenediamine 2"},{"company":[],"capacity":[],"planned_capacity_expansion":[],"location":[],"name":"CPR hexamethylenediamine 1"},{"company":["Dow","Dow","Vulcan Materials Company","Vulcan Materials Company"],"capacity":["81630","92968","86165","86165"],"planned_capacity_expansion":["nan","nan","nan","nan"],"location":[{"address":"Freeport, TX","latitude":28.9541368,"longitude":-95.3596617},{"address":"Plaquemine, LA","latitude":30.2890833,"longitude":-91.2342744},{"address":"Geismar, LA","latitude":30.2193468,"longitude":-91.0065088},{"address":"Wichita, KS","latitude":37.68717609999999,"longitude":-97.33005300000002}],"name":"CPR chloroform 1"},{"company":[],"capacity":[],"planned_capacity_expansion":[],"location":[],"name":"CPR chloroform 2"},{"company":[],"capacity":[],"planned_capacity_expansion":[],"location":[],"name":"CPR toluene 4"},{"company":["BP","ExxonMobil","Husk Energy","Flint Hills","Citgo","Total","Phillips 66","ExxonMobil","Valero","Flint Hills","Sunoco","LyondellBasell","Chevron Phillips","BASF"],"capacity":["800000","605000","345000","280000","258000","250000","210000","200000","180000","180000","165000","150000","145000","130000"],"planned_capacity_expansion":["nan","nan","nan","nan","nan","nan","nan","nan","nan","nan","nan","nan","nan","nan"],"location":[{"address":"Texas City, TX","latitude":29.383845,"longitude":-94.90270020000003},{"address":"Baytown, TX","latitude":29.7355047,"longitude":-94.97742740000001},{"address":"Lima, OH","latitude":40.742551,"longitude":-84.10522559999998},{"address":"Corpus Christi, TX","latitude":27.8005828,"longitude":-97.39638100000002},{"address":"Corpus Christi, TX","latitude":27.8005828,"longitude":-97.39638100000002},{"address":"Port Arthur, TX","latitude":29.8849504,"longitude":-93.93994699999996},"Alliance, LA",{"address":"Beaumont, TX","latitude":30.080174,"longitude":-94.12655619999998},{"address":"Three Rivers, TX","latitude":28.4602717,"longitude":-98.18250710000001},{"address":"Corpus Christi, TX","latitude":27.8005828,"longitude":-97.39638100000002},{"address":"Marcus Hook, PA","latitude":39.8192794,"longitude":-75.41852719999997},{"address":"Houston, TX","latitude":29.7604267,"longitude":-95.3698028},{"address":"Port Arthur, TX","latitude":29.8849504,"longitude":-93.93994699999996},{"address":"Port Arthur, TX","latitude":29.8849504,"longitude":-93.93994699999996}],"name":"CPR toluene 1"},{"company":["LyondellBasell","Shell","ExxonMobil","HollyFrontier","HollyFrontier","Marathon","Phillips 66","El Paso Refining and Chemical","Citgo","Marathon","Dow","Alon","LyondellBasell","Chevron Phillips"],"capacity":["130000","115000","100000","100000","100000","100000","75000","65000","55000","50000","39000","35000","30000","150000"],"planned_capacity_expansion":["nan","nan","nan","nan","nan","nan","nan","nan","nan","nan","nan","nan","nan","nan"],"location":[{"address":"Channelview, TX","latitude":29.7760599,"longitude":-95.11465329999999},{"address":"Deer Park, TX","latitude":29.7052284,"longitude":-95.1238204},{"address":"Baton Rouge, LA","latitude":30.4582829,"longitude":-91.1403196},{"address":"Tulsa, OK","latitude":36.1539816,"longitude":-95.992775},{"address":"El Dorado, KS","latitude":37.81724,"longitude":-96.86225239999999},{"address":"Catlettsburg, KY","latitude":38.4048042,"longitude":-82.60043689999998},{"address":"Sweeny, TX","latitude":29.0388615,"longitude":-95.6985608},{"address":"Corpus Christi, TX","latitude":27.8005828,"longitude":-97.39638100000002},{"address":"Lemont, IL","latitude":41.673642,"longitude":-88.00172609999998},{"address":"Texas City, TX","latitude":29.383845,"longitude":-94.90270020000003},{"address":"Plaquemine, LA","latitude":30.2890833,"longitude":-91.2342744},{"address":"Big Spring, TX","latitude":32.2503979,"longitude":-101.47873549999997},{"address":"Corpus Christi, TX","latitude":27.8005828,"longitude":-97.39638100000002},{"address":"St. James, LA","latitude":29.9828316,"longitude":-90.83087119999999}],"name":"CPR toluene 2"},{"company":[],"capacity":[],"planned_capacity_expansion":[],"location":[],"name":"CPR toluene 3"},{"company":["DuPont","Eastman","Eastman","LyondellBaselll","Celanese","Celanese","Eastmen"],"capacity":["80000","277000","590000","544000","55000","150000","255000"],"planned_capacity_expansion":["nan","nan","nan","nan","nan","nan","nan"],"location":[{"address":"La Porte, TX","latitude":29.6657838,"longitude":-95.01937279999999},{"address":"Kingsport, TN","latitude":36.548434,"longitude":-82.56181859999998},{"address":"Texas City, TX","latitude":29.383845,"longitude":-94.90270020000003},{"address":"La Porte, TX","latitude":29.6657838,"longitude":-95.01937279999999},{"address":"Calvert City, KY","latitude":37.0333896,"longitude":-88.35003619999998},{"address":"Narrows, VA","latitude":37.3315103,"longitude":-80.81118659999998},{"address":"Kingsport, TN","latitude":36.548434,"longitude":-82.56181859999998}],"name":"CPR acetic acid 1"},{"company":["Celanese","Celanese"],"capacity":["270000","90000"],"planned_capacity_expansion":["nan","nan"],"location":[{"address":"Pampa, TX","latitude":35.5361559,"longitude":-100.9598709},{"address":"Bishop, TX","latitude":27.5861441,"longitude":-97.79916359999999}],"name":"CPR acetic acid 3"},{"company":["Celanese"],"capacity":["1350000"],"planned_capacity_expansion":["nan"],"location":[{"address":"Clearlake, TX","latitude":29.5552311,"longitude":-95.1152088}],"name":"CPR acetic acid 2"},{"company":[],"capacity":[],"planned_capacity_expansion":[],"location":[],"name":"CPR acetic acid 5"},{"company":[],"capacity":[],"planned_capacity_expansion":[],"location":[],"name":"CPR acetic acid 4"},{"company":[],"capacity":[],"planned_capacity_expansion":[],"location":[],"name":"CPR acetic acid 7"},{"company":[],"capacity":[],"planned_capacity_expansion":[],"location":[],"name":"CPR acetic acid 6"},{"company":["Toso"],"capacity":["nan"],"planned_capacity_expansion":["nan"],"location":["nan"],"name":"CPR t-butanol 1"},{"company":["Dow","Eastman","Cyro Industries","Evonik","Lucite","Lucite"],"capacity":["35000","9000","140000","360000","160000","165000"],"planned_capacity_expansion":["nan","nan","nan","nan","nan","nan"],"location":[{"address":"Institute, WV","latitude":38.38377,"longitude":-81.76579770000001},{"address":"Kingsport, TN","latitude":36.548434,"longitude":-82.56181859999998},{"address":"Avondale, LA","latitude":29.91298339999999,"longitude":-90.20368680000001},{"address":"Deer Park, TX","latitude":29.7052284,"longitude":-95.1238204},{"address":"Beaumont, TX","latitude":30.080174,"longitude":-94.12655619999998},{"address":"Memphis, TN","latitude":35.1495343,"longitude":-90.0489801}],"name":"CPR methyl methacrylate 1"},{"company":[],"capacity":[],"planned_capacity_expansion":[],"location":[],"name":"CPR methyl methacrylate 3"},{"company":[],"capacity":[],"planned_capacity_expansion":[],"location":[],"name":"CPR methyl methacrylate 2"},{"company":[],"capacity":[],"planned_capacity_expansion":[],"location":[],"name":"CPR methyl methacrylate 4"},{"company":[],"capacity":[],"planned_capacity_expansion":[],"location":[],"name":"CPR caprolactam 4"},{"company":["ExxonMobil","Oxea","BASF"],"capacity":["nan","nan","nan"],"planned_capacity_expansion":["nan","nan","nan"],"location":[{"address":"Baton Rouge, LA","latitude":30.4582829,"longitude":-91.1403196},{"address":"Baton Rouge, LA","latitude":30.4582829,"longitude":-91.1403196},{"address":"Freeport, TX","latitude":28.9541368,"longitude":-95.3596617}],"name":"CPR isodecanol 1"},{"company":["Dow","Eastman","BASF","Celanese"],"capacity":["1025000","25000","270000","280000"],"planned_capacity_expansion":["nan","nan","nan","nan"],"location":[{"address":"Deer Park, TX","latitude":29.7052284,"longitude":-95.1238204},{"address":"Longview, TX","latitude":32.5007037,"longitude":-94.74048909999999},{"address":"Freeport, TX","latitude":28.9541368,"longitude":-95.3596617},{"address":"Bay City, TX","latitude":28.9827565,"longitude":-95.969402}],"name":"CPR n-butyraldehyde 1"},{"company":["Emerald Kalama Chemical","Velsicol Chemical"],"capacity":["95235","34012"],"planned_capacity_expansion":["nan","nan"],"location":[{"address":"Kalama, WA","latitude":46.0084472,"longitude":-122.8445509},{"address":"Chattanooga,TN","latitude":35.0456297,"longitude":-85.30968009999998}],"name":"CPR benzoic acid 1"},{"company":[],"capacity":[],"planned_capacity_expansion":[],"location":[],"name":"CPR ethyl acetate 2"},{"company":["Cyanco","Dow","Du Pont","Du Pont","Du Pont","FMC","Novartis","Rhone-Poulene","Rohm and Haas"],"capacity":["21768","18140","181400","290000","362800","29931","90700","13605","181400"],"planned_capacity_expansion":["nan","nan","nan","nan","nan","nan","nan","nan","nan"],"location":[{"address":"Winnemucca, NV","latitude":40.9729584,"longitude":-117.73568490000002},{"address":"Freeport, TX","latitude":28.9541368,"longitude":-95.3596617},{"address":"Memphis, TN","latitude":35.1495343,"longitude":-90.0489801},{"address":"Orange, TX","latitude":30.0929879,"longitude":-93.73655489999999},{"address":"Victoria, TX","latitude":28.8052674,"longitude":-97.0035982},{"address":"Green River, WY","latitude":41.5285757,"longitude":-109.46624610000003},{"address":"St. Gabriel, LA","latitude":30.25769529999999,"longitude":-91.09927060000001},{"address":"Institute, WV","latitude":38.38377,"longitude":-81.76579770000001},{"address":"Deer Prk, TX","latitude":29.7052284,"longitude":-95.1238204}],"name":"CPR hydrogen cyanide 1"},{"company":[],"capacity":[],"planned_capacity_expansion":[],"location":[],"name":"CPR 2-ethoxyethanol 1"},{"company":["Celanese","ExxonMobil"],"capacity":["40000","135000"],"planned_capacity_expansion":["nan","nan"],"location":[{"address":"Pampa, TX","latitude":35.5361559,"longitude":-100.9598709},{"address":"Baton Rouge, LA","latitude":30.4582829,"longitude":-91.1403196}],"name":"CPR methyl ethyl ketone 1"},{"company":[],"capacity":[],"planned_capacity_expansion":[],"location":[],"name":"CPR methyl ethyl ketone 2"},{"company":["TPC Group","TPC Group"],"capacity":["nan","nan"],"planned_capacity_expansion":["nan","nan"],"location":[{"address":"Baytown, TX","latitude":29.7355047,"longitude":-94.97742740000001},{"address":"Houston, TX","latitude":29.7604267,"longitude":-95.3698028}],"name":"CPR butadiene 1"},{"company":["LyondellBaselll"],"capacity":["nan"],"planned_capacity_expansion":["nan"],"location":["nan"],"name":"CPR butadiene 3"},{"company":[],"capacity":[],"planned_capacity_expansion":[],"location":[],"name":"CPR butadiene 2"},{"company":[],"capacity":[],"planned_capacity_expansion":[],"location":[],"name":"CPR butadiene 5"},{"company":[],"capacity":[],"planned_capacity_expansion":[],"location":[],"name":"CPR butadiene 4"},{"company":[],"capacity":[],"planned_capacity_expansion":[],"location":[],"name":"CPR syngas (1:1) 4"},{"company":["Momentive","Momentive","Momentive","Momentive","Momentive","Momentive","Momentive","Momentive","Momentive","Momentive","Momentive","Momentive","Momentive","Momentive"],"capacity":["136374","136374","136374","136374","136374","136374","136374","136374","136374","136374","136374","136374","136374","136374"],"planned_capacity_expansion":["nan","nan","nan","nan","nan","nan","nan","nan","nan","nan","nan","nan","nan","nan"],"location":[{"address":"Baytown, TX","latitude":29.7355047,"longitude":-94.97742740000001},{"address":"Demopolis, AL","latitude":32.5176361,"longitude":-87.83640200000002},{"address":"Diboll, TX","latitude":31.1871319,"longitude":-94.7810412},{"address":"Fayetteville, NC","latitude":35.0526641,"longitude":-78.87835849999999},{"address":"Fremont, CA","latitude":37.5482697,"longitude":-121.98857190000001},{"address":"Geismar, LA","latitude":30.2193468,"longitude":-91.0065088},{"address":"Gonzales, LA","latitude":30.2385294,"longitude":-90.92009869999998},{"address":"Hope, AR","latitude":33.6670615,"longitude":-93.5915665},{"address":"La Grande, OR","latitude":45.3245771,"longitude":-118.0877188},{"address":"Louisville, KY","latitude":38.2526647,"longitude":-85.75845570000001},{"address":"Missoula, MT","latitude":46.87871759999999,"longitude":-113.99658599999998},{"address":"Sheboygan, WI","latitude":43.7508284,"longitude":-87.71452999999997},{"address":"South Glens Falls, NY","latitude":43.2992389,"longitude":-73.63511679999999},{"address":"Springfield, OR","latitude":44.0462362,"longitude":-123.02202890000001}],"name":"CPR formaldehyde 2"},{"company":[],"capacity":[],"planned_capacity_expansion":[],"location":[],"name":"CPR carbon tetrachloride 3"},{"company":[],"capacity":[],"planned_capacity_expansion":[],"location":[],"name":"CPR cyclohexanol 3"},{"company":[],"capacity":[],"planned_capacity_expansion":[],"location":[],"name":"CPR cyclohexanol 4"},{"company":[],"capacity":[],"planned_capacity_expansion":[],"location":[],"name":"CPR syngas (1:1) 1"},{"company":[],"capacity":[],"planned_capacity_expansion":[],"location":[],"name":"CPR syngas (1:1) 2"},{"company":[],"capacity":[],"planned_capacity_expansion":[],"location":[],"name":"CPR syngas (1:1) 3"},{"company":[],"capacity":[],"planned_capacity_expansion":[],"location":[],"name":"CPR nitric acid (60%) 1"},{"company":[],"capacity":[],"planned_capacity_expansion":[],"location":[],"name":"CPR n-butanol 4"},{"company":[],"capacity":[],"planned_capacity_expansion":[],"location":[],"name":"CPR n-butanol 2"},{"company":["BASF","Dow","Dow","Eastman","Oxea","Texmark Chemicals"],"capacity":["240000","270000","255000","130000","230000","10000"],"planned_capacity_expansion":["nan","nan","nan","nan","nan","nan"],"location":[{"address":"Freeport, TX","latitude":28.9541368,"longitude":-95.3596617},{"address":"Taft, LA","latitude":29.9913149,"longitude":-90.44813870000002},{"address":"Texas City, TX","latitude":29.383845,"longitude":-94.90270020000003},{"address":"Longview, TX","latitude":32.5007037,"longitude":-94.74048909999999},{"address":"Bay City, TX","latitude":28.9827565,"longitude":-95.969402},{"address":"Houston, TX","latitude":29.7604267,"longitude":-95.3698028}],"name":"CPR n-butanol 3"},{"company":[],"capacity":[],"planned_capacity_expansion":[],"location":[],"name":"CPR xylenes 1"},{"company":[],"capacity":[],"planned_capacity_expansion":[],"location":[],"name":"CPR ethylene 16"},{"company":["Chevron Phillips","Dow","Dow","Dow","Eastman","LyondellBasell","LyondellBasell","LyondellBasell","LyondellBasell","ExonnMobil","ExonnMobil","ExonnMobil","Formosa","Formosa","INEOS","Shell","Shell","BASF","LyondellBasell"],"capacity":["208750","707000","236000","164000","7810","831250","831250","462600","157800","243750","549250","612000","326400","290000","262800","412698","507936","774000","544000"],"planned_capacity_expansion":["nan","nan","nan","nan","nan","nan","nan","nan","nan","nan","nan","nan","nan","nan","nan","nan","nan","nan","nan"],"location":[{"address":"Cedar Bayou, TX","latitude":29.7755031,"longitude":-94.94214829999999},{"address":"Freeport, TX","latitude":28.9541368,"longitude":-95.3596617},{"address":"Taft 1, LA","latitude":29.9913149,"longitude":-90.44813870000002},{"address":"Taft 2, LA","latitude":30.001836,"longitude":-90.41531370000001},{"address":"Longview, TX","latitude":32.5007037,"longitude":-94.74048909999999},{"address":"Channelview, TX","latitude":29.7760599,"longitude":-95.11465329999999},{"address":"Channelview, TX","latitude":29.7760599,"longitude":-95.11465329999999},{"address":"Corpus Christi, TX","latitude":27.8005828,"longitude":-97.39638100000002},{"address":"La Porte, TX","latitude":29.6657838,"longitude":-95.01937279999999},{"address":"Baton Rouge, LA","latitude":30.4582829,"longitude":-91.1403196},{"address":"Baytown, TX","latitude":29.7355047,"longitude":-94.97742740000001},{"address":"Beaumont, TX","latitude":30.080174,"longitude":-94.12655619999998},{"address":"Point Comfort, TX","latitude":28.6797169,"longitude":-96.56025369999998},{"address":"Point Comfort, TX","latitude":28.6797169,"longitude":-96.56025369999998},{"address":"Chocolate Bayou, TX","latitude":29.3132939,"longitude":-95.25215559999998},{"address":"Deer Park, TX","latitude":29.7052284,"longitude":-95.1238204},{"address":"Norco, LA","latitude":29.9990924,"longitude":-90.4123042},{"address":"Port Arthur, TX","latitude":29.8849504,"longitude":-93.93994699999996},{"address":"Chocolate Bayou, TX","latitude":29.3132939,"longitude":-95.25215559999998}],"name":"CPR ethylene 15"},{"company":["Chevron Phillips","Chevron Phillips","Chevron Phillips","Dow","Eastman","ExonnMobil","ExonnMobil","ExonnMobil","Flint Hills"],"capacity":["208750","42750","236250","148000","54670","78000","197730","73440","380953"],"planned_capacity_expansion":["nan","nan","nan","nan","nan","nan","nan","nan","nan"],"location":[{"address":"Cedar Bayou, TX","latitude":29.7755031,"longitude":-94.94214829999999},{"address":"Port Arthur, TX","latitude":29.8849504,"longitude":-93.93994699999996},{"address":"Sweeny, TX","latitude":29.0388615,"longitude":-95.6985608},{"address":"Plaquemine, LA","latitude":30.2890833,"longitude":-91.2342744},{"address":"Longview, TX","latitude":32.5007037,"longitude":-94.74048909999999},{"address":"Baton Rouge, LA","latitude":30.4582829,"longitude":-91.1403196},{"address":"Baytown, TX","latitude":29.7355047,"longitude":-94.97742740000001},{"address":"Beaumont, TX","latitude":30.080174,"longitude":-94.12655619999998},{"address":"Port Arthur, TX","latitude":29.8849504,"longitude":-93.93994699999996}],"name":"CPR ethylene 14"},{"company":["Chevron Phillips","Chevron Phillips","Chevron Phillips","Chevron Phillips","Chevron Phillips","Dow","Dow","Dow","Dow","Dow","Dow","Eastman","LyondellBasell","LyondellBasell","LyondellBasell","LyondellBasell","ExonnMobil","ExonnMobil","ExonnMobil","Flint Hills","Formosa","Formosa","INEOS","Westlake","Williams"],"capacity":["167000","128250","349650","166250","38250","315000","202000","130000","74000","236000","164000","523270","95200","231300","157800","110000","78000","175760","65280","253968","122400","108750","613200","189254","48980"],"planned_capacity_expansion":["nan","nan","nan","nan","nan","nan","nan","nan","nan","nan","nan","nan","nan","nan","nan","nan","nan","nan","nan","nan","nan","nan","nan","nan","nan"],"location":[{"address":"Cedar Bayou, TX","latitude":29.7755031,"longitude":-94.94214829999999},{"address":"Port Arthur, TX","latitude":29.8849504,"longitude":-93.93994699999996},{"address":"Sweeny, TX","latitude":29.0388615,"longitude":-95.6985608},{"address":"Sweeny, TX","latitude":29.0388615,"longitude":-95.6985608},{"address":"Sweeny, TX","latitude":29.0388615,"longitude":-95.6985608},{"address":"Freeport, TX","latitude":28.9541368,"longitude":-95.3596617},{"address":"Freeport, TX","latitude":28.9541368,"longitude":-95.3596617},{"address":"Plaquemine, LA","latitude":30.2890833,"longitude":-91.2342744},{"address":"Plaquemine, LA","latitude":30.2890833,"longitude":-91.2342744},{"address":"Taft 1, LA","latitude":29.9913149,"longitude":-90.44813870000002},{"address":"Taft 2, LA","latitude":30.001836,"longitude":-90.41531370000001},{"address":"Longview, TX","latitude":32.5007037,"longitude":-94.74048909999999},{"address":"Clinton, Iowa","latitude":41.8444735,"longitude":-90.18873789999998},{"address":"Corpus Christi, TX","latitude":27.8005828,"longitude":-97.39638100000002},{"address":"La Porte, TX","latitude":29.6657838,"longitude":-95.01937279999999},{"address":"Morris, IL","latitude":41.357254,"longitude":-88.4211785},{"address":"Baton Rouge, LA","latitude":30.4582829,"longitude":-91.1403196},{"address":"Baytown, TX","latitude":29.7355047,"longitude":-94.97742740000001},{"address":"Beaumont, TX","latitude":30.080174,"longitude":-94.12655619999998},{"address":"Port Arthur, TX","latitude":29.8849504,"longitude":-93.93994699999996},{"address":"Point Comfort, TX","latitude":28.6797169,"longitude":-96.56025369999998},{"address":"Point Comfort, TX","latitude":28.6797169,"longitude":-96.56025369999998},{"address":"Chocolate Bayou, tX","latitude":29.3132939,"longitude":-95.25215559999998},{"address":"Sulphur #2, LA","latitude":34.47049519999999,"longitude":-97.04619509999998},{"address":"Geismar, LA","latitude":30.2193468,"longitude":-91.0065088}],"name":"CPR ethylene 13"},{"company":["Chevron Phillips","Chevron Phillips","Chevron Phillips","Chevron Phillips","Chevron Phillips","Dow","Dow","Dow","Dow","Dow","Dow","DuPont","Eastman","LyondellBasell","LyondellBasell","LyondellBasell","LyondellBasell","LyondellBasell","LyondellBasell","ExonnMobil","ExonnMobil","ExonnMobil","Formosa","Formosa","Huntsman","INEOS","Mark Javalina Company","Sasol","Shell","Shell","Westlake","Westlake","Westlake","Williams","BASF","Formosa","Occidental"],"capacity":["250500","684000","359100","498750","216750","315000","101000","390000","518000","118000","82000","680000","195250","43750","43750","380800","77100","473400","440000","87750","1274260","65280","367200","326250","180000","876000","151000","471655","58956","72563","204082","567000","441590","563265","86000","nan","nan"],"planned_capacity_expansion":["1500000","nan","nan","91000","nan","1500000","nan","nan","nan","nan","nan","nan","nan","113000","nan","nan","363000","363000","nan","nan","1500000","nan","1000000","nan","nan","115000","nan","1500000","nan","nan","82000","113000","nan","273000","nan","1200000","544000"],"location":[{"address":"Cedar Bayou, TX","latitude":29.7755031,"longitude":-94.94214829999999},{"address":"Port Arthur, TX","latitude":29.8849504,"longitude":-93.93994699999996},{"address":"Sweeny, TX","latitude":29.0388615,"longitude":-95.6985608},{"address":"Sweeny, TX","latitude":29.0388615,"longitude":-95.6985608},{"address":"Sweeny, TX","latitude":29.0388615,"longitude":-95.6985608},{"address":"Freeport, TX","latitude":28.9541368,"longitude":-95.3596617},{"address":"Freeport, TX","latitude":28.9541368,"longitude":-95.3596617},{"address":"Plaquemine, LA","latitude":30.2890833,"longitude":-91.2342744},{"address":"Plaquemine, LA","latitude":30.2890833,"longitude":-91.2342744},{"address":"Taft 1, LA","latitude":29.9913149,"longitude":-90.44813870000002},{"address":"Taft 2, LA","latitude":30.001836,"longitude":-90.41531370000001},{"address":"Orange, TX","latitude":30.0929879,"longitude":-93.73655489999999},{"address":"Longview, TX","latitude":32.5007037,"longitude":-94.74048909999999},{"address":"Channelview, TX","latitude":29.7760599,"longitude":-95.11465329999999},{"address":"Channelview, TX","latitude":29.7760599,"longitude":-95.11465329999999},{"address":"Clinton, Iowa","latitude":41.8444735,"longitude":-90.18873789999998},{"address":"Corpus Christi, TX","latitude":27.8005828,"longitude":-97.39638100000002},{"address":"La Porte, TX","latitude":29.6657838,"longitude":-95.01937279999999},{"address":"Morris, IL","latitude":41.357254,"longitude":-88.4211785},{"address":"Baton Rouge, LA","latitude":30.4582829,"longitude":-91.1403196},{"address":"Baytown, TX","latitude":29.7355047,"longitude":-94.97742740000001},{"address":"Beaumont, TX","latitude":30.080174,"longitude":-94.12655619999998},{"address":"Point Comfort, TX","latitude":28.6797169,"longitude":-96.56025369999998},{"address":"Point Comfort, TX","latitude":28.6797169,"longitude":-96.56025369999998},{"address":"Port neches, TX","latitude":29.9913244,"longitude":-93.95850669999999},{"address":"Chocolate Bayou, tX","latitude":29.3132939,"longitude":-95.25215559999998},{"address":"Corpus Christi, TX","latitude":27.8005828,"longitude":-97.39638100000002},{"address":"Lake Charles, LA","latitude":30.2265949,"longitude":-93.21737580000001},{"address":"Deer Park, TX","latitude":29.7052284,"longitude":-95.1238204},{"address":"Norco, LA","latitude":29.9990924,"longitude":-90.4123042},{"address":"Calvert city, KY","latitude":37.0333896,"longitude":-88.35003619999998},{"address":"Sulphur #1, LA","latitude":30.23186979999999,"longitude":-93.36874899999998},{"address":"Sulphur #2, LA","latitude":34.47049519999999,"longitude":-97.04619509999998},{"address":"Geismar, LA","latitude":30.2193468,"longitude":-91.0065088},{"address":"Port Arthur, TX","latitude":29.8849504,"longitude":-93.93994699999996},{"address":"Geismar, LA","latitude":30.2193468,"longitude":-91.0065088},{"address":"Ingelside, TX","latitude":27.8778026,"longitude":-97.211657}],"name":"CPR ethylene 12"},{"company":[],"capacity":[],"planned_capacity_expansion":[],"location":[],"name":"CPR ethylene 11"},{"company":[],"capacity":[],"planned_capacity_expansion":[],"location":[],"name":"CPR ethylene 10"},{"company":[],"capacity":[],"planned_capacity_expansion":[],"location":[],"name":"CPR adipic acid 4"},{"company":[],"capacity":[],"planned_capacity_expansion":[],"location":[],"name":"CPR adipic acid 5"},{"company":[],"capacity":[],"planned_capacity_expansion":[],"location":[],"name":"CPR adipic acid 1"},{"company":["BASF","Invista","Invista","Ascend Performance Materials"],"capacity":["140000","180000","350000","400000"],"planned_capacity_expansion":["nan","nan","nan","nan"],"location":[{"address":"Freeport, TX","latitude":28.9541368,"longitude":-95.3596617},{"address":"Orange, TX","latitude":30.0929879,"longitude":-93.73655489999999},{"address":"Victoria, TX","latitude":28.8052674,"longitude":-97.0035982},{"address":"Cantonment, FL","latitude":30.5971118,"longitude":-87.3640264}],"name":"CPR adipic acid 2"},{"company":[],"capacity":[],"planned_capacity_expansion":[],"location":[],"name":"CPR adipic acid 3"},{"company":[],"capacity":[],"planned_capacity_expansion":[],"location":[],"name":"CPR acetylene 1"},{"company":["BASF","Chevron Phillips","Rohm and Hass","Dow","Dow","Dow"],"capacity":["50000","9060","27180","1359","11325","2265"],"planned_capacity_expansion":["nan","nan","nan","nan","nan","nan"],"location":[{"address":"Geismar, LA","latitude":30.2193468,"longitude":-91.0065088},{"address":"Cedar Bayou, TX","latitude":29.7755031,"longitude":-94.94214829999999},{"address":"Deer Park, TX","latitude":29.7052284,"longitude":-95.1238204},{"address":"Seadrift, TX","latitude":28.4152807,"longitude":-96.71359330000001},{"address":"Taft, TX","latitude":27.9789074,"longitude":-97.3986041},{"address":"Texas City, TX","latitude":29.383845,"longitude":-94.90270020000003}],"name":"CPR acetylene 2"},{"company":[],"capacity":[],"planned_capacity_expansion":[],"location":[],"name":"CPR acetylene 3"},{"company":[],"capacity":[],"planned_capacity_expansion":[],"location":[],"name":"CPR acetylene 4"},{"company":["LyondellBasell"],"capacity":["13000"],"planned_capacity_expansion":["nan"],"location":[{"address":"La Porte, TX","latitude":29.6657838,"longitude":-95.01937279999999}],"name":"CPR acetylene 5"},{"company":["Carbide Industries","Carbide Industries"],"capacity":["11502","6000"],"planned_capacity_expansion":["nan","nan"],"location":[{"address":"Calvert City, KY","latitude":37.0333896,"longitude":-88.35003619999998},{"address":"Louisville, KY","latitude":38.2526647,"longitude":-85.75845570000001}],"name":"CPR acetylene 6"},{"company":[],"capacity":[],"planned_capacity_expansion":[],"location":[],"name":"CPR acetylene 7"},{"company":[],"capacity":[],"planned_capacity_expansion":[],"location":[],"name":"CPR dimethylamine 1"},{"company":["Dow","Shell"],"capacity":["360000","0"],"planned_capacity_expansion":["nan","nan"],"location":[{"address":"Freeport, TX","latitude":28.9541368,"longitude":-95.3596617},{"address":"Houston, TX","latitude":29.7604267,"longitude":-95.3698028}],"name":"CPR allyl chloride 1"},{"company":["LyondellBasell","Huntsman","Enterprise","TPC group"],"capacity":["525000","766000","550000","50000"],"planned_capacity_expansion":["nan","nan","nan","nan"],"location":[{"address":"Channelview, TX","latitude":29.7760599,"longitude":-95.11465329999999},{"address":"Port Neches, TX","latitude":29.9913244,"longitude":-93.95850669999999},{"address":"Mont Belvieu, TX","latitude":29.8477222,"longitude":-94.890758},{"address":"Houston, TX","latitude":29.7604267,"longitude":-95.3698028}],"name":"CPR methyl tert-butyl ether 1"},{"company":["Bayer","Dow","SABIC","SABIC","Hexion","Sunoco"],"capacity":["260000","190470","74827","265297","249425","110000"],"planned_capacity_expansion":["nan","nan","nan","nan","nan","nan"],"location":[{"address":"Baytown, TX","latitude":29.7355047,"longitude":-94.97742740000001},{"address":"Freeport, TX","latitude":28.9541368,"longitude":-95.3596617},{"address":"Burkeville, AL","latitude":32.3281945,"longitude":-86.5369197},{"address":"Mount Vernon, IN","latitude":37.9322662,"longitude":-87.89502670000002},{"address":"Deer Park, TX","latitude":29.7052284,"longitude":-95.1238204},{"address":"Haverhill, OH","latitude":38.5848013,"longitude":-82.8321123}],"name":"CPR bisphenol-a 1"},{"company":[],"capacity":[],"planned_capacity_expansion":[],"location":[],"name":"CPR carbon black 1"},{"company":[],"capacity":[],"planned_capacity_expansion":[],"location":[],"name":"CPR carbon black 2"},{"company":["Ciba","Kemira WaterSolutions","Nalco","SNF Chemtall"],"capacity":["15000","41000","20000","65000"],"planned_capacity_expansion":["nan","nan","nan","nan"],"location":[{"address":"Suffolk, VA","latitude":36.7282054,"longitude":-76.5835621},{"address":"Fortier, LA","latitude":29.959406,"longitude":-90.27422389999998},{"address":"Garyville, LA","latitude":30.056035,"longitude":-90.61925539999999},{"address":"Riceboro, GA","latitude":31.7354935,"longitude":-81.43344079999997}],"name":"CPR acrylamide 1"},{"company":[],"capacity":[],"planned_capacity_expansion":[],"location":[],"name":"CPR acrylamide 2"},{"company":[],"capacity":[],"planned_capacity_expansion":[],"location":[],"name":"CPR acrylamide 3"},{"company":[],"capacity":[],"planned_capacity_expansion":[],"location":[],"name":"CPR acrylamide 4"},{"company":[],"capacity":[],"planned_capacity_expansion":[],"location":[],"name":"CPR dimethyl ether 1"},{"company":[],"capacity":[],"planned_capacity_expansion":[],"location":[],"name":"CPR isobutane 1"},{"company":["PPG Industries"],"capacity":["nan"],"planned_capacity_expansion":["nan"],"location":[{"address":"Lake Charles, LA","latitude":30.2265949,"longitude":-93.21737580000001}],"name":"CPR ethyl chloride 1"},{"company":[],"capacity":[],"planned_capacity_expansion":[],"location":[],"name":"CPR ethyl chloride 2"},{"company":[],"capacity":[],"planned_capacity_expansion":[],"location":[],"name":"CPR o-xylene 1"},{"company":[],"capacity":[],"planned_capacity_expansion":[],"location":[],"name":"CPR o-xylene 2"},{"company":[],"capacity":[],"planned_capacity_expansion":[],"location":[],"name":"CPR trimethylamine 1"},{"company":["DuPont"],"capacity":["45000"],"planned_capacity_expansion":["nan"],"location":[{"address":"Laplace, LA","latitude":30.0665907,"longitude":-90.48008479999999}],"name":"CPR chloroprene 1"},{"company":["DuPont"],"capacity":["55000"],"planned_capacity_expansion":["nan"],"location":[{"address":"Louisville, KY","latitude":38.2526647,"longitude":-85.75845570000001}],"name":"CPR chloroprene 2"},{"company":["Eastman"],"capacity":["nan"],"planned_capacity_expansion":["nan"],"location":[{"address":"Kingsport, TN","latitude":36.548434,"longitude":-82.56181859999998}],"name":"CPR methyl acetate 1"},{"company":[],"capacity":[],"planned_capacity_expansion":[],"location":[],"name":"CPR methyl acetate 2"}]
